"id","code","name","miningSiteId","excavatorId","isActive","maxQueueSize","latitude","longitude","coalSeam","coalQuality","createdAt","updatedAt"
"cmifyitka00xe2o7gkxqrsgfb","LP-0001","Loading Point 1","cmifyit1u00gp2o7gqzt93hpw",,true,4,-3.541595064441346,119.1709650505392,"Seam-B2","{""sulfur"":0.2717178251283704,""calorie"":5974.994484509925,""moisture"":16.54085670600704,""ash_content"":5.864786428326273}","2025-11-26T12:04:29.866Z","2025-11-26T12:04:29.866Z"
"cmifyitkd00xg2o7g2in7a85g","LP-0002","Loading Point 2","cmifyit2100gt2o7g1d8n35a2",,true,3,-2.777809530344713,118.7599366210482,"Seam-A1","{""sulfur"":0.2273765834456117,""calorie"":4641.101344319074,""moisture"":10.81238307375198,""ash_content"":7.60677951095281}","2025-11-26T12:04:29.869Z","2025-11-26T12:04:29.869Z"
"cmifyitkf00xi2o7ge02sk9z2","LP-0003","Loading Point 3","cmifyit2e00h52o7gb7y04i5h",,true,9,-3.65647202919743,118.0639585094637,"Seam-C1","{""sulfur"":0.620443441106443,""calorie"":5003.339529458328,""moisture"":11.67220056380983,""ash_content"":9.925883590563892}","2025-11-26T12:04:29.871Z","2025-11-26T12:04:29.871Z"
"cmifyitkg00xk2o7gcex2i7ng","LP-0004","Loading Point 4","cmifyit2i00h92o7gled0mdpu",,true,4,-4.52211370729377,118.1549620466811,"Seam-B2","{""sulfur"":0.6244172566625183,""calorie"":4770.38497826774,""moisture"":19.99352766752328,""ash_content"":10.25654181884018}","2025-11-26T12:04:29.873Z","2025-11-26T12:04:29.873Z"
"cmifyitki00xm2o7gy95qnimb","LP-0005","Loading Point 5","cmifyit2u00hk2o7gneh5k5br",,true,9,-3.773198564511787,118.7968271478535,"Seam-B1","{""sulfur"":0.6638030114408964,""calorie"":5120.268150299171,""moisture"":14.86519898802641,""ash_content"":9.827819526839546}","2025-11-26T12:04:29.874Z","2025-11-26T12:04:29.874Z"
"cmifyitkj00xo2o7gg4xm3krk","LP-0006","Loading Point 6","cmifyit2x00hn2o7gnvitw2xi",,true,3,-3.929221351261314,116.1039155593848,"Seam-A1","{""sulfur"":0.775886516464614,""calorie"":5290.688853793623,""moisture"":12.19310923952395,""ash_content"":7.122122735872981}","2025-11-26T12:04:29.876Z","2025-11-26T12:04:29.876Z"
"cmifyitkl00xq2o7gat7jyapo","LP-0007","Loading Point 7","cmifyit2z00hp2o7glhq3h6yx",,true,5,-3.038144768341442,116.0053025534291,"Seam-C2","{""sulfur"":0.3145995223322212,""calorie"":5683.667487433737,""moisture"":15.5111867401008,""ash_content"":8.305501478995838}","2025-11-26T12:04:29.877Z","2025-11-26T12:04:29.877Z"
"cmifyitkm00xs2o7giydb0jwn","LP-0008","Loading Point 8","cmifyit3200hs2o7gejl8ssw2",,true,6,-3.430295988640343,119.1878575459146,"Seam-C1","{""sulfur"":0.22097076316414,""calorie"":5648.26761333831,""moisture"":17.61622506100217,""ash_content"":6.49971402114164}","2025-11-26T12:04:29.878Z","2025-11-26T12:04:29.878Z"
"cmifyitkn00xu2o7gt8f0m334","LP-0009","Loading Point 9","cmifyit3600hv2o7gx6hag8ee",,true,3,-5.453245164426512,115.0669073154595,"Seam-A1","{""sulfur"":0.2775414139122269,""calorie"":5837.786634036799,""moisture"":19.06633450256942,""ash_content"":6.499015513242284}","2025-11-26T12:04:29.880Z","2025-11-26T12:04:29.880Z"
"cmifyitkp00xw2o7g5bs1ngnf","LP-0010","Loading Point 10","cmifyit3700hw2o7g35z9u7hf",,true,3,-4.506569940359445,118.9353292374956,"Seam-A1","{""sulfur"":0.6509043057156256,""calorie"":5265.433556149266,""moisture"":8.08072322119818,""ash_content"":6.968091733631708}","2025-11-26T12:04:29.881Z","2025-11-26T12:04:29.881Z"
"cmifyitkq00xy2o7gbwxrix7o","LP-0011","Loading Point 11","cmifyit3d00i12o7glf6lggeg",,true,6,-4.206255160501031,117.290889165077,"Seam-B2","{""sulfur"":0.588943286969561,""calorie"":5141.878387463914,""moisture"":15.2751303090072,""ash_content"":8.486224536574623}","2025-11-26T12:04:29.882Z","2025-11-26T12:04:29.882Z"
"cmifyitkr00y02o7gbbykhdhr","LP-0012","Loading Point 12","cmifyit3e00i22o7gwtbgx71g",,true,3,-3.377233458829856,119.6141182812696,"Seam-A2","{""sulfur"":0.5320669988398791,""calorie"":4529.425950286808,""moisture"":19.86415842618754,""ash_content"":9.367326275772752}","2025-11-26T12:04:29.884Z","2025-11-26T12:04:29.884Z"
"cmifyitkt00y22o7gfx4pq1qb","LP-0013","Loading Point 13","cmifyit3y00ij2o7gcq657djj",,true,8,-4.301515939535147,116.9920138823736,"Seam-A1","{""sulfur"":0.3928195631256867,""calorie"":4868.384354958245,""moisture"":17.91031893944195,""ash_content"":8.455184671938635}","2025-11-26T12:04:29.885Z","2025-11-26T12:04:29.885Z"
"cmifyitku00y42o7g08ragkkb","LP-0014","Loading Point 14","cmifyit4600iq2o7guydcooc8",,true,7,-4.536961848201795,118.7663251610223,"Seam-B2","{""sulfur"":0.4263088028450326,""calorie"":5695.637650675759,""moisture"":8.26367711907453,""ash_content"":10.47950023801688}","2025-11-26T12:04:29.886Z","2025-11-26T12:04:29.886Z"
"cmifyitkw00y62o7ghfnr49eb","LP-0015","Loading Point 15","cmifyit4q00j72o7gh4ky2kwz",,true,5,-4.831429569190975,119.1623186132112,"Seam-C1","{""sulfur"":0.7448219423165297,""calorie"":5531.30985447825,""moisture"":10.76528505242229,""ash_content"":8.454333910003475}","2025-11-26T12:04:29.888Z","2025-11-26T12:04:29.888Z"
"cmifyitkx00y82o7g3r48zjtc","LP-0016","Loading Point 16","cmifyit4t00ja2o7ghypzreuc",,true,4,-5.272854601701408,117.7322110170537,"Seam-B2","{""sulfur"":0.3248794467102859,""calorie"":4840.698402385028,""moisture"":13.00113877588696,""ash_content"":5.837851990285396}","2025-11-26T12:04:29.889Z","2025-11-26T12:04:29.889Z"
"cmifyitky00ya2o7gc2tqxdhx","LP-0017","Loading Point 17","cmifyit5h00jv2o7gg5a6q5an",,false,9,-4.362464354681436,117.0530939998129,"Seam-C1","{""sulfur"":0.5626771812195613,""calorie"":4538.244684955598,""moisture"":8.976246229161566,""ash_content"":4.926572376343271}","2025-11-26T12:04:29.891Z","2025-11-26T12:04:29.891Z"
"cmifyitl000yc2o7g8jnemgj4","LP-0018","Loading Point 18","cmifyit5q00k22o7g98jhyolw",,true,5,-4.072425145348475,117.4668598236042,"Seam-B2","{""sulfur"":0.2219332136343839,""calorie"":5689.187300316376,""moisture"":16.80202434394326,""ash_content"":6.462746539294896}","2025-11-26T12:04:29.892Z","2025-11-26T12:04:29.892Z"
"cmifyitl100ye2o7g6vckf1r2","LP-0019","Loading Point 19","cmifyit6c00km2o7gc4x32fvk",,true,4,-4.196128567957968,115.2311627364296,"Seam-C2","{""sulfur"":0.6845280203335795,""calorie"":5216.719750131232,""moisture"":13.87054971480643,""ash_content"":4.08131287490375}","2025-11-26T12:04:29.893Z","2025-11-26T12:04:29.893Z"
"cmifyitl200yg2o7gkk0mdkdc","LP-0020","Loading Point 20","cmifyit6d00kn2o7gmaspcbbb",,true,6,-3.576664160189731,116.335779869034,"Seam-B2","{""sulfur"":0.626191295130716,""calorie"":5654.818179433815,""moisture"":16.5866699604765,""ash_content"":6.961473363061868}","2025-11-26T12:04:29.895Z","2025-11-26T12:04:29.895Z"
"cmifyitl400yi2o7gmw65du8a","LP-0021","Loading Point 21","cmifyit6j00kt2o7gkjbdj3tu",,true,5,-4.203466089281775,119.7846751556781,"Seam-A2","{""sulfur"":0.3673331329677024,""calorie"":5681.280971803295,""moisture"":11.69597139275325,""ash_content"":6.426262611488282}","2025-11-26T12:04:29.896Z","2025-11-26T12:04:29.896Z"
"cmifyitl500yk2o7guh4aldbm","LP-0022","Loading Point 22","cmifyit6p00ky2o7gf7ht3l0x",,true,5,-3.508934606557417,119.5976310321229,"Seam-D","{""sulfur"":0.4244009136561813,""calorie"":5109.721660198051,""moisture"":8.983990675915106,""ash_content"":4.93041949785507}","2025-11-26T12:04:29.897Z","2025-11-26T12:04:29.897Z"
"cmifyitl700ym2o7g6m4cv56o","LP-0023","Loading Point 23","cmifyit6q00kz2o7gw6pjhjok",,true,6,-3.655271768188115,116.0611650476516,"Seam-A1","{""sulfur"":0.4127623838508747,""calorie"":5176.077502219514,""moisture"":11.95701878564286,""ash_content"":8.502228702536389}","2025-11-26T12:04:29.899Z","2025-11-26T12:04:29.899Z"
"cmifyitl800yo2o7gkun96uiy","LP-0024","Loading Point 24","cmifyit6v00l42o7gvpztaagi",,true,9,-2.665526754404806,119.9763688605458,"Seam-B2","{""sulfur"":0.4612619535639033,""calorie"":5860.819749392489,""moisture"":9.167772538320838,""ash_content"":6.889158450260622}","2025-11-26T12:04:29.900Z","2025-11-26T12:04:29.900Z"
"cmifyitl900yq2o7gzrwse2wa","LP-0025","Loading Point 25","cmifyit6z00l82o7golrhinl7",,true,8,-2.879537139131418,116.6046142300226,"Seam-C2","{""sulfur"":0.5121859443311023,""calorie"":4554.45197494974,""moisture"":8.338998093257828,""ash_content"":6.683200400692877}","2025-11-26T12:04:29.902Z","2025-11-26T12:04:29.902Z"
"cmifyitla00ys2o7g0kilwkhf","LP-0026","Loading Point 26","cmifyit7600le2o7g7agqz6dp",,true,3,-5.276271406563401,117.0834631615285,"Seam-C1","{""sulfur"":0.2855712561687574,""calorie"":5137.484350093519,""moisture"":19.63148922170519,""ash_content"":8.744731274738143}","2025-11-26T12:04:29.903Z","2025-11-26T12:04:29.903Z"
"cmifyitlc00yu2o7g7zyui9rs","LP-0027","Loading Point 27","cmifyit7800lg2o7gp0o0ad50",,true,3,-4.921975183767571,115.1917422703996,"Seam-C1","{""sulfur"":0.5880126689538175,""calorie"":4863.878314241434,""moisture"":13.28625632762374,""ash_content"":10.74273059786238}","2025-11-26T12:04:29.904Z","2025-11-26T12:04:29.904Z"
"cmifyitld00yw2o7gns5k0jms","LP-0028","Loading Point 28","cmifyit7900lh2o7gg6gfrkho",,true,3,-5.069807974637707,117.0830201627276,"Seam-C1","{""sulfur"":0.5345999895381273,""calorie"":4667.744073933685,""moisture"":13.81294423465281,""ash_content"":7.754200920899503}","2025-11-26T12:04:29.906Z","2025-11-26T12:04:29.906Z"
"cmifyitlf00yy2o7g0ijit14n","LP-0029","Loading Point 29","cmifyit7d00ll2o7gdew1a0mn",,true,7,-3.308272192697364,117.4819492800925,"Seam-A2","{""sulfur"":0.2733244007982375,""calorie"":4969.929269796211,""moisture"":15.42738099363953,""ash_content"":5.113328314460668}","2025-11-26T12:04:29.907Z","2025-11-26T12:04:29.907Z"
"cmifyitlg00z02o7ge73ttclw","LP-0030","Loading Point 30","cmifyit7j00lr2o7g4iyri5s0",,true,9,-3.180332946672392,119.0934192463964,"Seam-C1","{""sulfur"":0.5294411330923562,""calorie"":4698.20302582672,""moisture"":10.92008984251863,""ash_content"":7.579896837162806}","2025-11-26T12:04:29.909Z","2025-11-26T12:04:29.909Z"
"cmifyitli00z22o7gn5ukv0ud","LP-0031","Loading Point 31","cmifyit7q00lx2o7g989f377j",,true,8,-4.889149110171185,118.3380169721211,"Seam-C2","{""sulfur"":0.6027738959987979,""calorie"":4994.012834419649,""moisture"":19.82863385469297,""ash_content"":5.69569718538961}","2025-11-26T12:04:29.910Z","2025-11-26T12:04:29.910Z"
"cmifyitlj00z42o7g78kgruj3","LP-0032","Loading Point 32","cmifyit8000m62o7gwo64bswx",,true,4,-3.753630600954318,118.8749618232082,"Seam-B2","{""sulfur"":0.3305140290950961,""calorie"":5179.038258721521,""moisture"":19.73091636683304,""ash_content"":5.181016707187043}","2025-11-26T12:04:29.911Z","2025-11-26T12:04:29.911Z"
"cmifyitlk00z62o7g0868p5mw","LP-0033","Loading Point 33","cmifyit8400ma2o7g4mtrqw5l",,true,6,-3.562343351992023,115.7706903143693,"Seam-A1","{""sulfur"":0.3489773192037907,""calorie"":4964.392299898416,""moisture"":8.34064006919872,""ash_content"":8.563887394242016}","2025-11-26T12:04:29.913Z","2025-11-26T12:04:29.913Z"
"cmifyitlm00z82o7gk6ir4js9","LP-0034","Loading Point 34","cmifyit8g00ml2o7gzs0x0vy2",,true,3,-3.487475852661944,117.1362121683954,"Seam-B2","{""sulfur"":0.7849190664679195,""calorie"":4832.964343902704,""moisture"":9.251914117526017,""ash_content"":8.160674867639818}","2025-11-26T12:04:29.914Z","2025-11-26T12:04:29.914Z"
"cmifyitln00za2o7g7cv0gicj","LP-0035","Loading Point 35","cmifyit8k00mp2o7g2akv6lyu",,true,9,-5.310935038995679,116.0591092135945,"Seam-A1","{""sulfur"":0.6157781822473954,""calorie"":5581.445068879239,""moisture"":9.8516895492346,""ash_content"":6.210727559679119}","2025-11-26T12:04:29.916Z","2025-11-26T12:04:29.916Z"
"cmifyitlp00zc2o7gyuruiyu5","LP-0036","Loading Point 36","cmifyit8r00mv2o7gaj7onlzy",,true,4,-4.994596152199961,119.2355331854112,"Seam-C2","{""sulfur"":0.464605034618612,""calorie"":5773.806018053341,""moisture"":9.49740399489434,""ash_content"":5.433385069058307}","2025-11-26T12:04:29.917Z","2025-11-26T12:04:29.917Z"
"cmifyitlq00ze2o7glu0n7quu","LP-0037","Loading Point 37","cmifyit8w00n02o7gsqznreun",,true,3,-4.211468506219873,116.4206246231729,"Seam-C2","{""sulfur"":0.7362675026688956,""calorie"":4592.965089139685,""moisture"":12.34363406287421,""ash_content"":11.5614178157214}","2025-11-26T12:04:29.919Z","2025-11-26T12:04:29.919Z"
"cmifyitls00zg2o7gi58a7d8d","LP-0038","Loading Point 38","cmifyit9300n62o7goa8lxcn7",,true,8,-5.446488725399761,118.2669974193115,"Seam-D","{""sulfur"":0.7596669728170338,""calorie"":5939.636112821611,""moisture"":13.29413291846892,""ash_content"":8.070508555217922}","2025-11-26T12:04:29.920Z","2025-11-26T12:04:29.920Z"
"cmifyitlu00zi2o7g5y2wgmh0","LP-0039","Loading Point 39","cmifyit9a00nd2o7groops541",,true,6,-4.835322699936128,119.335918295259,"Seam-D","{""sulfur"":0.6334389669003416,""calorie"":5091.13565170107,""moisture"":14.73102437037297,""ash_content"":5.178858464664469}","2025-11-26T12:04:29.922Z","2025-11-26T12:04:29.922Z"
"cmifyitlv00zk2o7g9xzj51nz","LP-0040","Loading Point 40","cmifyit9b00ne2o7giydu2uh9",,true,4,-5.412695405226117,117.7646480243914,"Seam-A1","{""sulfur"":0.4250137714050125,""calorie"":4814.115893898949,""moisture"":19.29567236815384,""ash_content"":10.88639256499572}","2025-11-26T12:04:29.924Z","2025-11-26T12:04:29.924Z"
"cmifyitlx00zm2o7g2dp1i53w","LP-0041","Loading Point 41","cmifyit9u00nv2o7givwkaffz",,true,9,-3.760532189878636,119.3796259510443,"Seam-D","{""sulfur"":0.3658229708438223,""calorie"":5454.001493862118,""moisture"":18.85286775098056,""ash_content"":10.45382852673253}","2025-11-26T12:04:29.925Z","2025-11-26T12:04:29.925Z"
"cmifyitly00zo2o7g4pg5nkew","LP-0042","Loading Point 42","cmifyit9w00nx2o7gt19901pc",,true,8,-5.369001359310839,116.2045460338121,"Seam-D","{""sulfur"":0.3345875216359342,""calorie"":5787.700681469989,""moisture"":11.04620473836846,""ash_content"":4.424134397916422}","2025-11-26T12:04:29.927Z","2025-11-26T12:04:29.927Z"
"cmifyitm000zq2o7ggd6bjizs","LP-0043","Loading Point 43","cmifyita600o62o7g2cq1xsi7",,true,4,-3.611909334647346,116.6813477846564,"Seam-C2","{""sulfur"":0.5168873958400169,""calorie"":5260.445161450786,""moisture"":9.074088807237011,""ash_content"":11.46762164728092}","2025-11-26T12:04:29.928Z","2025-11-26T12:04:29.928Z"
"cmifyitm100zs2o7g3x9l3wox","LP-0044","Loading Point 44","cmifyitac00ob2o7gwrzs389o",,true,3,-3.221294614465078,115.4445208908069,"Seam-A1","{""sulfur"":0.5757086108729186,""calorie"":4841.28816692087,""moisture"":19.04677693859946,""ash_content"":8.106536544967458}","2025-11-26T12:04:29.930Z","2025-11-26T12:04:29.930Z"
"cmifyitm300zu2o7gj3a9iaug","LP-0045","Loading Point 45","cmifyitad00oc2o7g8rq2z36g",,true,4,-5.092458984058524,115.2978811606455,"Seam-D","{""sulfur"":0.5944645375553786,""calorie"":5419.722634708879,""moisture"":18.2601776504808,""ash_content"":10.03902785779781}","2025-11-26T12:04:29.931Z","2025-11-26T12:04:29.931Z"
"cmifyitm400zw2o7g9qjeuv75","LP-0046","Loading Point 46","cmifyitak00oj2o7gag75khdo",,true,3,-3.682638003431697,115.9355904069445,"Seam-C1","{""sulfur"":0.6497945865081468,""calorie"":5047.710675868897,""moisture"":18.4857072161238,""ash_content"":11.96602734161237}","2025-11-26T12:04:29.932Z","2025-11-26T12:04:29.932Z"
"cmifyitm600zy2o7gac5lxmm6","LP-0047","Loading Point 47","cmifyitam00ol2o7g94vhyq2v",,true,9,-3.463926322665035,116.3048582079769,"Seam-D","{""sulfur"":0.7887536710611844,""calorie"":5134.330318798835,""moisture"":17.30752316550089,""ash_content"":7.864163333590605}","2025-11-26T12:04:29.935Z","2025-11-26T12:04:29.935Z"
"cmifyitm801002o7gvpqup971","LP-0048","Loading Point 48","cmifyitb000oy2o7g0euthij5",,true,9,-4.797101676810047,117.2027819649968,"Seam-D","{""sulfur"":0.3541155366407744,""calorie"":4860.261799215561,""moisture"":19.00580101177019,""ash_content"":5.120175284495343}","2025-11-26T12:04:29.936Z","2025-11-26T12:04:29.936Z"
"cmifyitma01022o7giq91a2ud","LP-0049","Loading Point 49","cmifyitbj00pf2o7gxjt0muxu",,true,6,-3.949522508002039,116.0743896161562,"Seam-C2","{""sulfur"":0.468789112105595,""calorie"":5540.226844321212,""moisture"":11.32144289267546,""ash_content"":11.31713632926478}","2025-11-26T12:04:29.938Z","2025-11-26T12:04:29.938Z"
"cmifyitmc01042o7gwzh0ibz0","LP-0050","Loading Point 50","cmifyitbm00pi2o7gb613qz99",,true,3,-4.749304771180997,117.8922660491782,"Seam-A2","{""sulfur"":0.4381828160961083,""calorie"":4568.94209010832,""moisture"":18.79203291238559,""ash_content"":6.466918386377463}","2025-11-26T12:04:29.940Z","2025-11-26T12:04:29.940Z"
"cmifyitme01062o7gvo4zjq6z","LP-0051","Loading Point 51","cmifyitbq00pl2o7gwxuk47do",,true,8,-5.135838888386054,115.8557213787848,"Seam-A2","{""sulfur"":0.2200103131111809,""calorie"":5512.786149350249,""moisture"":11.31221716557738,""ash_content"":10.5005543757139}","2025-11-26T12:04:29.942Z","2025-11-26T12:04:29.942Z"
"cmifyitmf01082o7gghl4qn9t","LP-0052","Loading Point 52","cmifyitc800q22o7gd1ayg9hd",,true,7,-5.470425995485078,119.6982258068814,"Seam-A1","{""sulfur"":0.3437394342323502,""calorie"":5093.621364654158,""moisture"":16.78301597593533,""ash_content"":9.322792867239679}","2025-11-26T12:04:29.943Z","2025-11-26T12:04:29.943Z"
"cmifyitmg010a2o7gk9sjq1j6","LP-0053","Loading Point 53","cmifyitc900q32o7gez7uphpf",,true,5,-4.86747268676257,115.6717249510303,"Seam-A2","{""sulfur"":0.4324389440989583,""calorie"":5781.317027864129,""moisture"":9.05400116089298,""ash_content"":6.110102335666811}","2025-11-26T12:04:29.945Z","2025-11-26T12:04:29.945Z"
"cmifyitmi010c2o7gnehn2o7h","LP-0054","Loading Point 54","cmifyitcb00q52o7gtn7hsmye",,true,5,-4.851608218020952,117.5382236131764,"Seam-B2","{""sulfur"":0.5313238817866796,""calorie"":5160.326458607778,""moisture"":13.20360639123863,""ash_content"":7.189320944863823}","2025-11-26T12:04:29.946Z","2025-11-26T12:04:29.946Z"
"cmifyitmj010e2o7gibex1rel","LP-0055","Loading Point 55","cmifyitce00q82o7g101pl06v",,true,5,-5.048380656229476,116.8669830709881,"Seam-B1","{""sulfur"":0.6600602631894315,""calorie"":4968.322699025207,""moisture"":12.96233922037707,""ash_content"":5.245465460972319}","2025-11-26T12:04:29.948Z","2025-11-26T12:04:29.948Z"
"cmifyitml010g2o7g3m3r58vr","LP-0056","Loading Point 56","cmifyitco00qh2o7gis2howrr",,true,9,-3.803205042930608,119.1121699104139,"Seam-C2","{""sulfur"":0.4710286108138859,""calorie"":4986.385638977498,""moisture"":9.870492346566747,""ash_content"":9.991656624008321}","2025-11-26T12:04:29.949Z","2025-11-26T12:04:29.949Z"
"cmifyitmm010i2o7got8z0omr","LP-0057","Loading Point 57","cmifyitct00qm2o7gddrt183t",,true,8,-4.93986832938287,118.5648555642057,"Seam-A2","{""sulfur"":0.7585367539287828,""calorie"":4818.770680439367,""moisture"":14.16837473337107,""ash_content"":4.683642427754794}","2025-11-26T12:04:29.950Z","2025-11-26T12:04:29.950Z"
"cmifyitmo010k2o7g4lupxsua","LP-0058","Loading Point 58","cmifyitcw00qo2o7gtejbvd9q",,true,7,-2.819829887777936,119.345149313193,"Seam-B1","{""sulfur"":0.5935319606069709,""calorie"":4775.196385802725,""moisture"":14.62508946609438,""ash_content"":4.984720530256963}","2025-11-26T12:04:29.952Z","2025-11-26T12:04:29.952Z"
"cmifyitmq010m2o7gl3t7vlw8","LP-0059","Loading Point 59","cmifyitcy00qq2o7gvznuqdlu",,true,8,-3.694008083300024,118.420239139108,"Seam-A2","{""sulfur"":0.397536805722727,""calorie"":4771.475614617533,""moisture"":9.04378064843913,""ash_content"":10.4041689070006}","2025-11-26T12:04:29.954Z","2025-11-26T12:04:29.954Z"
"cmifyitmr010o2o7gqaeqzyg2","LP-0060","Loading Point 60","cmifyitd400qv2o7ghnlwpvoy",,true,8,-4.265451313325864,118.1737355012975,"Seam-A1","{""sulfur"":0.2413127398681978,""calorie"":5800.725295212116,""moisture"":10.52641218657346,""ash_content"":5.869807987661591}","2025-11-26T12:04:29.956Z","2025-11-26T12:04:29.956Z"
"cmifyitmt010q2o7g4by6ntvb","LP-0061","Loading Point 61","cmifyitdf00r62o7gnois6hwf",,true,6,-4.399736144974014,115.496511949508,"Seam-A1","{""sulfur"":0.5298594731830546,""calorie"":5143.896639607069,""moisture"":9.750978912681594,""ash_content"":6.50166057992352}","2025-11-26T12:04:29.957Z","2025-11-26T12:04:29.957Z"
"cmifyitmv010s2o7gr8g28xke","LP-0062","Loading Point 62","cmifyitdi00r82o7gnxvofm2o",,true,8,-4.922904503217594,118.811087302866,"Seam-A2","{""sulfur"":0.6441646213228054,""calorie"":5132.877455037037,""moisture"":12.83585041592093,""ash_content"":9.490159909329655}","2025-11-26T12:04:29.959Z","2025-11-26T12:04:29.959Z"
"cmifyitmw010u2o7g3o34i0cj","LP-0063","Loading Point 63","cmifyitdo00re2o7g3v33w4zn",,true,8,-2.909070949147752,119.6448418835273,"Seam-C1","{""sulfur"":0.4862449549815511,""calorie"":5187.063742439951,""moisture"":17.71367387253517,""ash_content"":8.230185884123044}","2025-11-26T12:04:29.960Z","2025-11-26T12:04:29.960Z"
"cmifyitmy010w2o7gdwvsrzmf","LP-0064","Loading Point 64","cmifyitdq00rg2o7gcm9wynp0",,true,9,-4.628324024844872,115.5135722016741,"Seam-C1","{""sulfur"":0.5258910414573292,""calorie"":5791.317560163054,""moisture"":8.546468487805907,""ash_content"":9.297838067354563}","2025-11-26T12:04:29.962Z","2025-11-26T12:04:29.962Z"
"cmifyitmz010y2o7gtc6zsgle","LP-0065","Loading Point 65","cmifyitdr00rh2o7gx3qft5uk",,false,3,-4.523677691259984,118.3134940979044,"Seam-A1","{""sulfur"":0.7819019449774136,""calorie"":5336.681713755077,""moisture"":8.346001120439498,""ash_content"":9.483739855915212}","2025-11-26T12:04:29.963Z","2025-11-26T12:04:29.963Z"
"cmifyitn001102o7gccvxis2w","LP-0066","Loading Point 66","cmifyitdu00rk2o7gmd6hoywa",,true,4,-3.156984498179189,118.1335196002645,"Seam-C1","{""sulfur"":0.4829770748611317,""calorie"":5519.653262770517,""moisture"":10.1212936804071,""ash_content"":8.720386061710647}","2025-11-26T12:04:29.965Z","2025-11-26T12:04:29.965Z"
"cmifyitn201122o7gg5uiww80","LP-0067","Loading Point 67","cmifyitdv00rl2o7goql5o1zn",,true,4,-2.580457925791402,119.8499526170368,"Seam-A1","{""sulfur"":0.735760335194203,""calorie"":5486.130739565288,""moisture"":16.86450118540041,""ash_content"":5.470819952498015}","2025-11-26T12:04:29.966Z","2025-11-26T12:04:29.966Z"
"cmifyitn301142o7grjmmcfkh","LP-0068","Loading Point 68","cmifyitdy00rn2o7gyoglwmw2",,true,4,-4.611451485992474,119.7576128921595,"Seam-B1","{""sulfur"":0.3468045270834482,""calorie"":4684.968129445452,""moisture"":9.716759994583844,""ash_content"":5.43007509722143}","2025-11-26T12:04:29.968Z","2025-11-26T12:04:29.968Z"
"cmifyitn501162o7gs4qb7zes","LP-0069","Loading Point 69","cmifyite400rt2o7gi54z38jf",,true,6,-3.655355079662659,115.7926365742963,"Seam-C1","{""sulfur"":0.7960392714811269,""calorie"":4985.409850170651,""moisture"":16.53134569140668,""ash_content"":9.403702136575378}","2025-11-26T12:04:29.969Z","2025-11-26T12:04:29.969Z"
"cmifyitn601182o7gete9pjpz","LP-0070","Loading Point 70","cmifyitec00s12o7gydc7fq3n",,true,8,-4.121113535980959,117.8142783117744,"Seam-A1","{""sulfur"":0.5800773652487551,""calorie"":4582.407998913378,""moisture"":14.34118592329996,""ash_content"":4.81751161000571}","2025-11-26T12:04:29.971Z","2025-11-26T12:04:29.971Z"
"cmifyitn8011a2o7gpttit2oy","LP-0071","Loading Point 71","cmifyiten00sb2o7g4rf6je0n",,true,8,-3.627782815161425,119.6010898648946,"Seam-C1","{""sulfur"":0.7975188968457505,""calorie"":4561.348473700328,""moisture"":9.49912128829795,""ash_content"":6.918206105923076}","2025-11-26T12:04:29.972Z","2025-11-26T12:04:29.972Z"
"cmifyitna011c2o7gowwjo2qm","LP-0072","Loading Point 72","cmifyites00sf2o7ga8k3q59x",,true,7,-3.490870906567029,117.3326870109573,"Seam-A2","{""sulfur"":0.4936092114478353,""calorie"":5110.554076221674,""moisture"":15.13143835703859,""ash_content"":6.803943635766752}","2025-11-26T12:04:29.974Z","2025-11-26T12:04:29.974Z"
"cmifyitnb011e2o7g8d5good2","LP-0073","Loading Point 73","cmifyitev00si2o7gkat5l02x",,true,4,-4.545455005422533,119.4858985698256,"Seam-C1","{""sulfur"":0.5263949965302112,""calorie"":5350.469371865836,""moisture"":11.59356651778178,""ash_content"":10.68797203757876}","2025-11-26T12:04:29.976Z","2025-11-26T12:04:29.976Z"
"cmifyitnd011g2o7g1oh46ao2","LP-0074","Loading Point 74","cmifyitew00sj2o7gg51pxxs7",,true,8,-4.223878359217158,119.0382297544274,"Seam-D","{""sulfur"":0.7688664595805355,""calorie"":5105.183430535018,""moisture"":8.98750207682309,""ash_content"":4.862302354686202}","2025-11-26T12:04:29.977Z","2025-11-26T12:04:29.977Z"
"cmifyitne011i2o7gdehvgb4q","LP-0075","Loading Point 75","cmifyitf600ss2o7gxtpkswrr",,true,3,-4.059875667454405,118.9709517828218,"Seam-D","{""sulfur"":0.5713694406088112,""calorie"":4691.543551985688,""moisture"":19.2335717763525,""ash_content"":9.219968300968224}","2025-11-26T12:04:29.979Z","2025-11-26T12:04:29.979Z"
"cmifyitng011k2o7g5rlsy8f6","LP-0076","Loading Point 76","cmifyitf700st2o7gqbxb40c3",,false,6,-3.86232975366982,115.7649182396351,"Seam-C2","{""sulfur"":0.5308721725141992,""calorie"":5621.438835091437,""moisture"":15.47082383242481,""ash_content"":7.5981020472215}","2025-11-26T12:04:29.980Z","2025-11-26T12:04:29.980Z"
"cmifyitni011m2o7gqz55lhbu","LP-0077","Loading Point 77","cmifyitf900sv2o7gebfypzh0",,true,9,-4.539795633600987,117.0323239663629,"Seam-C1","{""sulfur"":0.3512598847909997,""calorie"":4514.31776201102,""moisture"":19.50214266985293,""ash_content"":5.678683866539384}","2025-11-26T12:04:29.982Z","2025-11-26T12:04:29.982Z"
"cmifyitnj011o2o7gmb7xqy60","LP-0078","Loading Point 78","cmifyitfe00sz2o7gqopfwarn",,true,4,-3.825618910613669,118.2393343878675,"Seam-B1","{""sulfur"":0.4390374099960545,""calorie"":5364.663662821293,""moisture"":18.26647829986923,""ash_content"":10.03272447274954}","2025-11-26T12:04:29.983Z","2025-11-26T12:04:29.983Z"
"cmifyitnk011q2o7grev4kbka","LP-0079","Loading Point 79","cmifyitfk00t52o7ggqdavz7o",,true,7,-3.343225611388892,119.6083906129459,"Seam-A2","{""sulfur"":0.7218986518190649,""calorie"":5528.086966791317,""moisture"":15.98521522797012,""ash_content"":7.613935388848972}","2025-11-26T12:04:29.985Z","2025-11-26T12:04:29.985Z"
"cmifyitnm011s2o7g9rpswxy2","LP-0080","Loading Point 80","cmifyitfn00t82o7ge257vm45",,true,8,-4.446119595694248,118.0452952501954,"Seam-D","{""sulfur"":0.7314157097066549,""calorie"":4849.330228796437,""moisture"":10.0907183167972,""ash_content"":10.19860939448021}","2025-11-26T12:04:29.986Z","2025-11-26T12:04:29.986Z"
"cmifyitno011u2o7g73aqu7i0","LP-0081","Loading Point 81","cmifyitg100tk2o7giipl4sb7",,true,6,-3.084012428396279,116.1824359264449,"Seam-B2","{""sulfur"":0.6098855256260257,""calorie"":5632.003684836702,""moisture"":17.80343666487298,""ash_content"":8.513019692886065}","2025-11-26T12:04:29.988Z","2025-11-26T12:04:29.988Z"
"cmifyitnq011w2o7gqz9542t8","LP-0082","Loading Point 82","cmifyitg600tp2o7g9igott34",,true,8,-4.856875977624068,119.5469332666281,"Seam-B1","{""sulfur"":0.3852172130908146,""calorie"":5768.533957351329,""moisture"":12.40815377091918,""ash_content"":10.12879207679444}","2025-11-26T12:04:29.990Z","2025-11-26T12:04:29.990Z"
"cmifyitnr011y2o7gupv35iq7","LP-0083","Loading Point 83","cmifyitg800tr2o7g0fux6slh",,true,6,-4.966803097987484,116.8761883930852,"Seam-C1","{""sulfur"":0.4008788616097907,""calorie"":5393.442250565047,""moisture"":17.95970336478612,""ash_content"":10.22397308001283}","2025-11-26T12:04:29.992Z","2025-11-26T12:04:29.992Z"
"cmifyitnt01202o7gqpcyaupu","LP-0084","Loading Point 84","cmifyitgh00tz2o7g1i5o9zzz",,true,5,-2.616171689339188,117.7757794402679,"Seam-C2","{""sulfur"":0.7164492626633976,""calorie"":5091.071394384606,""moisture"":10.4165119914374,""ash_content"":9.946092028611927}","2025-11-26T12:04:29.993Z","2025-11-26T12:04:29.993Z"
"cmifyitnu01222o7gqcyoila7","LP-0085","Loading Point 85","cmifyitgq00u72o7gozf9qynn",,true,8,-3.080167012504215,117.6763388306219,"Seam-A1","{""sulfur"":0.5736472871358489,""calorie"":5699.485578012742,""moisture"":12.20819730340467,""ash_content"":11.24326623084135}","2025-11-26T12:04:29.995Z","2025-11-26T12:04:29.995Z"
"cmifyitnw01242o7g8qkhnh6s","LP-0086","Loading Point 86","cmifyitgt00ua2o7gyq87x5ri",,true,9,-2.560136653455575,118.2401094059193,"Seam-A2","{""sulfur"":0.4666892648727431,""calorie"":5390.008745551677,""moisture"":18.11629021462808,""ash_content"":10.41118728036941}","2025-11-26T12:04:29.996Z","2025-11-26T12:04:29.996Z"
"cmifyitnx01262o7gfu9laqgl","LP-0087","Loading Point 87","cmifyith100ui2o7g5i6fryv5",,true,4,-3.466753637666534,118.6972484366893,"Seam-C1","{""sulfur"":0.2239361314962543,""calorie"":5349.582286012357,""moisture"":12.22138583659259,""ash_content"":10.16950777925504}","2025-11-26T12:04:29.998Z","2025-11-26T12:04:29.998Z"
"cmifyitnz01282o7gp5kera0k","LP-0088","Loading Point 88","cmifyithh00ux2o7g7rbi12ku",,true,6,-3.245494235188262,115.3931430160898,"Seam-C1","{""sulfur"":0.2303695071184036,""calorie"":5458.520311968589,""moisture"":8.218875211754295,""ash_content"":10.64152567726766}","2025-11-26T12:04:29.999Z","2025-11-26T12:04:29.999Z"
"cmifyito0012a2o7gfe1y2hs8","LP-0089","Loading Point 89","cmifyithu00v92o7gfcl5nxpb",,true,8,-5.188243287542511,117.333757892602,"Seam-A2","{""sulfur"":0.2130964273300953,""calorie"":4705.501016321927,""moisture"":15.33798731473089,""ash_content"":7.679570576449464}","2025-11-26T12:04:30.001Z","2025-11-26T12:04:30.001Z"
"cmifyito2012c2o7gtxqzmaq6","LP-0090","Loading Point 90","cmifyithz00ve2o7g8t35088k",,false,7,-4.25852135368019,119.121653231692,"Seam-D","{""sulfur"":0.2394189128826187,""calorie"":5692.64698276923,""moisture"":8.83682276449707,""ash_content"":8.121176478317226}","2025-11-26T12:04:30.002Z","2025-11-26T12:04:30.002Z"
"cmifyito4012e2o7grxjifux1","LP-0091","Loading Point 91","cmifyiti500vj2o7ghko4oufk",,true,8,-4.004656348357228,119.2335615628997,"Seam-B1","{""sulfur"":0.5309953197286963,""calorie"":5087.044342883673,""moisture"":9.632320504289318,""ash_content"":4.607622292465123}","2025-11-26T12:04:30.004Z","2025-11-26T12:04:30.004Z"
"cmifyito9012g2o7ghdtcztkw","LP-0092","Loading Point 92","cmifyitic00vq2o7g4yicblew",,true,7,-3.295351468810519,116.1220257885414,"Seam-A2","{""sulfur"":0.3090667056563164,""calorie"":4776.887779395714,""moisture"":18.73797109750731,""ash_content"":4.536631626385219}","2025-11-26T12:04:30.009Z","2025-11-26T12:04:30.009Z"
"cmifyitoa012i2o7gw2enzkh1","LP-0093","Loading Point 93","cmifyitin00w02o7gwiq87d70",,true,9,-4.221585450693354,119.6546369972851,"Seam-C1","{""sulfur"":0.7575769228127525,""calorie"":4966.031524374041,""moisture"":14.95114671984405,""ash_content"":10.1885100277276}","2025-11-26T12:04:30.011Z","2025-11-26T12:04:30.011Z"
"cmifyitoc012k2o7gsffksxm9","LP-0094","Loading Point 94","cmifyitio00w12o7gs6n0aaq3",,true,3,-3.73559622407909,115.3020640259155,"Seam-B1","{""sulfur"":0.7260315940484443,""calorie"":5905.598683795015,""moisture"":16.0917496322996,""ash_content"":9.671125638339197}","2025-11-26T12:04:30.012Z","2025-11-26T12:04:30.012Z"
"cmifyitoe012m2o7gjr2to73r","LP-0095","Loading Point 95","cmifyitis00w52o7g63mk8fqf",,true,9,-4.878239299162463,116.7113264388062,"Seam-A2","{""sulfur"":0.3215580439532498,""calorie"":5640.349786794813,""moisture"":13.04683518028812,""ash_content"":5.223436484064583}","2025-11-26T12:04:30.014Z","2025-11-26T12:04:30.014Z"
"cmifyitof012o2o7gl83yn8ke","LP-0096","Loading Point 96","cmifyitiv00w72o7gzc513241",,true,6,-4.363099323321433,115.2062317761469,"Seam-B1","{""sulfur"":0.3307387411042021,""calorie"":4960.789691566171,""moisture"":14.58418489959575,""ash_content"":7.384607744190467}","2025-11-26T12:04:30.016Z","2025-11-26T12:04:30.016Z"
"cmifyitoh012q2o7gyc6seg20","LP-0097","Loading Point 97","cmifyitiw00w82o7g9wj63xn2",,true,4,-2.654761932293908,116.6619237960075,"Seam-A2","{""sulfur"":0.4778990830598161,""calorie"":5738.104439457782,""moisture"":8.475906940782645,""ash_content"":7.399409264514695}","2025-11-26T12:04:30.017Z","2025-11-26T12:04:30.017Z"
"cmifyitoi012s2o7gysqy4ao3","LP-0098","Loading Point 98","cmifyitiy00wa2o7g70phtzih",,true,4,-4.514663571135256,117.847114121422,"Seam-A1","{""sulfur"":0.3442022416818284,""calorie"":5398.211369227946,""moisture"":10.49282625409488,""ash_content"":10.57765809392581}","2025-11-26T12:04:30.019Z","2025-11-26T12:04:30.019Z"
"cmifyitok012u2o7gq6171maj","LP-0099","Loading Point 99","cmifyitiz00wb2o7ghk0rsiqd",,true,6,-4.907372345347145,119.6510982721274,"Seam-A2","{""sulfur"":0.451691892959466,""calorie"":5712.695361170141,""moisture"":16.06758236680195,""ash_content"":4.611322355802034}","2025-11-26T12:04:30.020Z","2025-11-26T12:04:30.020Z"
"cmifyitom012w2o7ggetwz0qq","LP-0100","Loading Point 100","cmifyitj000wc2o7gujzq9atx",,true,9,-4.637526793815952,119.3034981602404,"Seam-C2","{""sulfur"":0.2379114646399755,""calorie"":5544.168743238349,""moisture"":10.0235817300892,""ash_content"":4.604450594467462}","2025-11-26T12:04:30.022Z","2025-11-26T12:04:30.022Z"
"cmifyitoo012y2o7goqs51t8j","LP-0101","Loading Point 101","cmifyitj200wd2o7gr4epr5di",,true,5,-3.785691771391958,115.6126891351111,"Seam-D","{""sulfur"":0.2749596463572199,""calorie"":4833.858025674249,""moisture"":17.00559209451248,""ash_content"":11.74002190227342}","2025-11-26T12:04:30.024Z","2025-11-26T12:04:30.024Z"
"cmifyitop01302o7gogq29do0","LP-0102","Loading Point 102","cmifyitjd00wo2o7g9xe66cy8",,true,8,-3.400347856377128,117.740797532859,"Seam-C2","{""sulfur"":0.3302906984441263,""calorie"":5460.212202015205,""moisture"":14.05722602858183,""ash_content"":4.832986312408636}","2025-11-26T12:04:30.026Z","2025-11-26T12:04:30.026Z"
"cmifyitor01322o7gx4figpru","LP-0103","Loading Point 103","cmifyitji00ws2o7gjsojn142",,true,3,-5.055670351760841,117.2340224248827,"Seam-C1","{""sulfur"":0.2916821972318685,""calorie"":5852.830230710284,""moisture"":9.723545713720773,""ash_content"":10.13686139310564}","2025-11-26T12:04:30.027Z","2025-11-26T12:04:30.027Z"
"cmifyitos01342o7gtv1vdp0e","LP-0104","Loading Point 104","cmifyitjm00ww2o7gs5c3ecme",,true,8,-3.086348222590563,115.5324180276949,"Seam-D","{""sulfur"":0.6386526112841754,""calorie"":4524.725838702725,""moisture"":11.62207977863302,""ash_content"":9.964786807209192}","2025-11-26T12:04:30.029Z","2025-11-26T12:04:30.029Z"
"cmifyitou01362o7g89uo50az","LP-0105","Loading Point 105","cmifyitjz00x72o7gh116ntov",,true,6,-4.61119744108248,116.0596700800138,"Seam-C2","{""sulfur"":0.4260310600824904,""calorie"":4588.978613998606,""moisture"":19.45475586157852,""ash_content"":5.393598171280663}","2025-11-26T12:04:30.030Z","2025-11-26T12:04:30.030Z"
"cmifyitov01382o7gfpcfg0zc","LP-0106","Loading Point 106","cmifyitk100x82o7ghirnqqch",,true,5,-4.108863047623013,118.7208448232296,"Seam-A2","{""sulfur"":0.7353502014699349,""calorie"":5076.249507273667,""moisture"":11.1694432781461,""ash_content"":10.25661521351394}","2025-11-26T12:04:30.031Z","2025-11-26T12:04:30.031Z"
"cmifyitow013a2o7geq0uwhje","LP-0107","Loading Point 107","cmifyit1u00gp2o7gqzt93hpw",,true,6,-3.540662912178482,119.1696736592611,"Seam-A2","{""sulfur"":0.3592999895934583,""calorie"":5255.634777715377,""moisture"":16.25548811063964,""ash_content"":8.134494907125339}","2025-11-26T12:04:30.033Z","2025-11-26T12:04:30.033Z"
"cmifyitoy013c2o7gh5c5k0la","LP-0108","Loading Point 108","cmifyit2100gt2o7g1d8n35a2",,true,7,-2.784026074592094,118.7507512535706,"Seam-C2","{""sulfur"":0.3614056917368299,""calorie"":4873.151230380961,""moisture"":9.733820294184927,""ash_content"":6.864029632228304}","2025-11-26T12:04:30.034Z","2025-11-26T12:04:30.034Z"
"cmifyitp0013e2o7girmmddnk","LP-0109","Loading Point 109","cmifyit2e00h52o7gb7y04i5h",,true,7,-3.653395391990802,118.0615751656383,"Seam-D","{""sulfur"":0.628665011894966,""calorie"":4842.274343106604,""moisture"":17.33443678332611,""ash_content"":9.617114496233697}","2025-11-26T12:04:30.036Z","2025-11-26T12:04:30.036Z"
"cmifyitp2013g2o7gbqr6d1qu","LP-0110","Loading Point 110","cmifyit2i00h92o7gled0mdpu",,true,8,-4.515424659811088,118.1554947419215,"Seam-D","{""sulfur"":0.6317158024129322,""calorie"":5346.949912032501,""moisture"":16.48391334539551,""ash_content"":6.359268417668405}","2025-11-26T12:04:30.038Z","2025-11-26T12:04:30.038Z"
"cmifyitp3013i2o7gxe8t13ub","LP-0111","Loading Point 111","cmifyit2u00hk2o7gneh5k5br",,true,7,-3.777130039140055,118.7917586231775,"Seam-C1","{""sulfur"":0.2347106056119014,""calorie"":4864.488588356317,""moisture"":17.3199432370481,""ash_content"":6.011827282379688}","2025-11-26T12:04:30.040Z","2025-11-26T12:04:30.040Z"
"cmifyitp5013k2o7g6lxnwk26","LP-0112","Loading Point 112","cmifyit2x00hn2o7gnvitw2xi",,true,6,-3.932873521491858,116.1054217366623,"Seam-A1","{""sulfur"":0.6685197663249942,""calorie"":4627.429106580686,""moisture"":15.69147633153513,""ash_content"":10.36884766301328}","2025-11-26T12:04:30.041Z","2025-11-26T12:04:30.041Z"
"cmifyitp6013m2o7gfg1kwieu","LP-0113","Loading Point 113","cmifyit2z00hp2o7glhq3h6yx",,true,9,-3.043591407704091,116.0025026482247,"Seam-A2","{""sulfur"":0.6904306680046526,""calorie"":4660.275780028663,""moisture"":14.1682670278459,""ash_content"":7.977327660171973}","2025-11-26T12:04:30.043Z","2025-11-26T12:04:30.043Z"
"cmifyitp8013o2o7gamdcyqe1","LP-0114","Loading Point 114","cmifyit3200hs2o7gejl8ssw2",,true,4,-3.429514271632489,119.1922714711512,"Seam-A1","{""sulfur"":0.7423248513799274,""calorie"":5748.221969407196,""moisture"":19.31408815595539,""ash_content"":10.2505579366325}","2025-11-26T12:04:30.044Z","2025-11-26T12:04:30.044Z"
"cmifyitp9013q2o7g3t0vog77","LP-0115","Loading Point 115","cmifyit3600hv2o7gx6hag8ee",,true,3,-5.449557912104506,115.0581457968796,"Seam-A1","{""sulfur"":0.6901119082999632,""calorie"":4608.688674112112,""moisture"":19.26044557954038,""ash_content"":10.88687015126382}","2025-11-26T12:04:30.046Z","2025-11-26T12:04:30.046Z"
"cmifyitpb013s2o7gyr2mp7es","LP-0116","Loading Point 116","cmifyit3700hw2o7g35z9u7hf",,true,6,-4.506231358654497,118.9341476013857,"Seam-A1","{""sulfur"":0.5573009910819349,""calorie"":4644.171960465332,""moisture"":11.84821552650208,""ash_content"":7.357750354300695}","2025-11-26T12:04:30.047Z","2025-11-26T12:04:30.047Z"
"cmifyitpc013u2o7geb3pnnmv","LP-0117","Loading Point 117","cmifyit3d00i12o7glf6lggeg",,true,8,-4.210793107348656,117.2880577652343,"Seam-A1","{""sulfur"":0.6315182611295582,""calorie"":4867.433957125567,""moisture"":16.52259686190785,""ash_content"":4.291428798791536}","2025-11-26T12:04:30.048Z","2025-11-26T12:04:30.048Z"
"cmifyitpd013w2o7g8xyol7ui","LP-0118","Loading Point 118","cmifyit3e00i22o7gwtbgx71g",,true,6,-3.376016225095997,119.6121571003034,"Seam-C2","{""sulfur"":0.5697383224329594,""calorie"":5990.493520516593,""moisture"":14.90454820930836,""ash_content"":4.30677142281051}","2025-11-26T12:04:30.049Z","2025-11-26T12:04:30.049Z"
"cmifyitpe013y2o7gwr1bex55","LP-0119","Loading Point 119","cmifyit3y00ij2o7gcq657djj",,true,6,-4.304167665976751,116.9926455492611,"Seam-D","{""sulfur"":0.769624652364425,""calorie"":5739.803650018846,""moisture"":8.43443635911148,""ash_content"":11.89166718744924}","2025-11-26T12:04:30.051Z","2025-11-26T12:04:30.051Z"
"cmifyitpg01402o7g34lslj99","LP-0120","Loading Point 120","cmifyit4600iq2o7guydcooc8",,true,3,-4.536820229591794,118.7633092360271,"Seam-D","{""sulfur"":0.2061188917675409,""calorie"":4932.245164049375,""moisture"":13.89236614158886,""ash_content"":4.184756966766349}","2025-11-26T12:04:30.052Z","2025-11-26T12:04:30.052Z"
"cmifyitph01422o7g21wi6nws","LP-0121","Loading Point 121","cmifyit4q00j72o7gh4ky2kwz",,true,6,-4.827791712888074,119.157426047267,"Seam-B2","{""sulfur"":0.2208015897049198,""calorie"":5820.93277660335,""moisture"":12.86819047045245,""ash_content"":9.125364541002648}","2025-11-26T12:04:30.053Z","2025-11-26T12:04:30.053Z"
"cmifyitpl01442o7gug4floh1","LP-0122","Loading Point 122","cmifyit4t00ja2o7ghypzreuc",,true,3,-5.274638360217393,117.7252800154163,"Seam-A1","{""sulfur"":0.7671698941653922,""calorie"":5355.349608496965,""moisture"":18.68623493752852,""ash_content"":9.821256795104002}","2025-11-26T12:04:30.057Z","2025-11-26T12:04:30.057Z"
"cmifyitpp01462o7gngpudesi","LP-0123","Loading Point 123","cmifyit5h00jv2o7gg5a6q5an",,true,6,-4.36794882846725,117.0537727155949,"Seam-A2","{""sulfur"":0.4655557251858379,""calorie"":5533.778018459379,""moisture"":17.98602906848735,""ash_content"":11.10369148379716}","2025-11-26T12:04:30.061Z","2025-11-26T12:04:30.061Z"
"cmifyitpr01482o7g90baqfxh","LP-0124","Loading Point 124","cmifyit5q00k22o7g98jhyolw",,true,9,-4.07271981418513,117.460538627225,"Seam-B2","{""sulfur"":0.4008573775996574,""calorie"":5063.806560004736,""moisture"":9.070359973048742,""ash_content"":8.786589060792904}","2025-11-26T12:04:30.063Z","2025-11-26T12:04:30.063Z"
"cmifyitps014a2o7grm4qovbe","LP-0125","Loading Point 125","cmifyit6c00km2o7gc4x32fvk",,true,6,-4.190301251484979,115.2224514496973,"Seam-A1","{""sulfur"":0.3801059340663298,""calorie"":4885.633775362192,""moisture"":13.53524578151159,""ash_content"":7.819578262688545}","2025-11-26T12:04:30.065Z","2025-11-26T12:04:30.065Z"
"cmifyitpu014c2o7gbya11fu5","LP-0126","Loading Point 126","cmifyit6d00kn2o7gmaspcbbb",,true,6,-3.582419548096613,116.3363109910618,"Seam-C2","{""sulfur"":0.2529912800646649,""calorie"":5801.621850151718,""moisture"":19.71339119672623,""ash_content"":4.11548050504903}","2025-11-26T12:04:30.066Z","2025-11-26T12:04:30.066Z"
"cmifyitpw014e2o7gcrams2tp","LP-0127","Loading Point 127","cmifyit6j00kt2o7gkjbdj3tu",,true,5,-4.209354954410172,119.7826017041063,"Seam-C2","{""sulfur"":0.4811591954602118,""calorie"":5079.087143348934,""moisture"":12.22456832148483,""ash_content"":7.024190763616176}","2025-11-26T12:04:30.068Z","2025-11-26T12:04:30.068Z"
"cmifyitpy014g2o7gopnlte5q","LP-0128","Loading Point 128","cmifyit6p00ky2o7gf7ht3l0x",,true,5,-3.50623027455493,119.5956657127604,"Seam-D","{""sulfur"":0.6287304962913849,""calorie"":5794.625784711959,""moisture"":9.839454937079225,""ash_content"":9.090648181470113}","2025-11-26T12:04:30.070Z","2025-11-26T12:04:30.070Z"
"cmifyitq1014i2o7gqcm5qrgm","LP-0129","Loading Point 129","cmifyit6q00kz2o7gw6pjhjok",,true,5,-3.657483146718973,116.0656166221731,"Seam-A1","{""sulfur"":0.2377499148796226,""calorie"":5818.690111126051,""moisture"":14.85535629287521,""ash_content"":11.0360307752043}","2025-11-26T12:04:30.073Z","2025-11-26T12:04:30.073Z"
"cmifyitq3014k2o7gmq8j3m83","LP-0130","Loading Point 130","cmifyit6v00l42o7gvpztaagi",,true,5,-2.663831567170437,119.9756756306426,"Seam-A1","{""sulfur"":0.7393564624487607,""calorie"":5601.527706717721,""moisture"":18.22773292669309,""ash_content"":9.790099212801593}","2025-11-26T12:04:30.075Z","2025-11-26T12:04:30.075Z"
"cmifyitq5014m2o7gd21i7bi3","LP-0131","Loading Point 131","cmifyit6z00l82o7golrhinl7",,true,4,-2.877267401838913,116.6075672307874,"Seam-A1","{""sulfur"":0.5911188828198212,""calorie"":5542.462715655686,""moisture"":14.1480155701809,""ash_content"":6.242875942768899}","2025-11-26T12:04:30.077Z","2025-11-26T12:04:30.077Z"
"cmifyitq7014o2o7g1y83phcj","LP-0132","Loading Point 132","cmifyit7600le2o7g7agqz6dp",,true,5,-5.271311915700304,117.0842296132598,"Seam-C1","{""sulfur"":0.3816544783654976,""calorie"":4642.386986981465,""moisture"":10.37179306499443,""ash_content"":11.84147209303413}","2025-11-26T12:04:30.080Z","2025-11-26T12:04:30.080Z"
"cmifyitq9014q2o7g4b7tqury","LP-0133","Loading Point 133","cmifyit7800lg2o7gp0o0ad50",,true,3,-4.928018471772164,115.186095190453,"Seam-A1","{""sulfur"":0.3542877527705811,""calorie"":5729.801560982218,""moisture"":9.120253422772164,""ash_content"":9.526511566241387}","2025-11-26T12:04:30.081Z","2025-11-26T12:04:30.081Z"
"cmifyitqb014s2o7gptxo7ju0","LP-0134","Loading Point 134","cmifyit7900lh2o7gg6gfrkho",,false,4,-5.066264385972554,117.0867058912994,"Seam-D","{""sulfur"":0.3744651826874659,""calorie"":5019.068969309506,""moisture"":10.37662942181261,""ash_content"":4.79619285076949}","2025-11-26T12:04:30.083Z","2025-11-26T12:04:30.083Z"
"cmifyitqd014u2o7guzl6s4n8","LP-0135","Loading Point 135","cmifyit7d00ll2o7gdew1a0mn",,true,6,-3.307106643918365,117.486087072158,"Seam-C2","{""sulfur"":0.2375083113624284,""calorie"":4758.519427131546,""moisture"":19.01556628981167,""ash_content"":4.487338618301576}","2025-11-26T12:04:30.085Z","2025-11-26T12:04:30.085Z"
"cmifyitqf014w2o7g1s8epa8f","LP-0136","Loading Point 136","cmifyit7j00lr2o7g4iyri5s0",,true,9,-3.188648342840135,119.0919170256086,"Seam-A1","{""sulfur"":0.7701799344074736,""calorie"":5957.950470493544,""moisture"":17.7800585083973,""ash_content"":6.264852179425217}","2025-11-26T12:04:30.087Z","2025-11-26T12:04:30.087Z"
"cmifyitqh014y2o7ghohil0zw","LP-0137","Loading Point 137","cmifyit7q00lx2o7g989f377j",,true,8,-4.886401544401449,118.3382105055587,"Seam-D","{""sulfur"":0.716487712024017,""calorie"":5691.710937189009,""moisture"":14.47704674208369,""ash_content"":8.051665042498101}","2025-11-26T12:04:30.090Z","2025-11-26T12:04:30.090Z"
"cmifyitqj01502o7gvknzfqgu","LP-0138","Loading Point 138","cmifyit8000m62o7gwo64bswx",,true,6,-3.749962859657348,118.8729514597646,"Seam-C2","{""sulfur"":0.5100205834245031,""calorie"":4611.744455388438,""moisture"":19.77739525553952,""ash_content"":7.945410421078678}","2025-11-26T12:04:30.091Z","2025-11-26T12:04:30.091Z"
"cmifyitqk01522o7gxmsdlhmr","LP-0139","Loading Point 139","cmifyit8400ma2o7g4mtrqw5l",,true,9,-3.55656939870587,115.7676201798538,"Seam-C1","{""sulfur"":0.276287954117814,""calorie"":4775.746966479073,""moisture"":10.60688400152619,""ash_content"":11.27675100097701}","2025-11-26T12:04:30.093Z","2025-11-26T12:04:30.093Z"
"cmifyitqm01542o7g3rnynxal","LP-0140","Loading Point 140","cmifyit8g00ml2o7gzs0x0vy2",,true,8,-3.487322496270769,117.1367947729165,"Seam-D","{""sulfur"":0.3912219510782957,""calorie"":4887.937075466205,""moisture"":17.54417539603226,""ash_content"":9.701136645138913}","2025-11-26T12:04:30.094Z","2025-11-26T12:04:30.094Z"
"cmifyitqo01562o7gf4krsfy0","LP-0141","Loading Point 141","cmifyit8k00mp2o7g2akv6lyu",,true,3,-5.314924029895209,116.059996402757,"Seam-B2","{""sulfur"":0.3481146954070387,""calorie"":5555.103064161329,""moisture"":19.04623772036267,""ash_content"":4.098398012369247}","2025-11-26T12:04:30.096Z","2025-11-26T12:04:30.096Z"
"cmifyitqp01582o7ged2nzpwy","LP-0142","Loading Point 142","cmifyit8r00mv2o7gaj7onlzy",,true,5,-4.99958228546105,119.2389260791528,"Seam-A2","{""sulfur"":0.7458668193277829,""calorie"":5633.662834158794,""moisture"":17.76560021002526,""ash_content"":7.46505315285826}","2025-11-26T12:04:30.097Z","2025-11-26T12:04:30.097Z"
"cmifyitqq015a2o7gk5aa92sl","LP-0143","Loading Point 143","cmifyit8w00n02o7gsqznreun",,true,8,-4.215012777230872,116.421866547569,"Seam-A2","{""sulfur"":0.627353611094326,""calorie"":5042.501761371111,""moisture"":11.3140252684499,""ash_content"":7.067115810503699}","2025-11-26T12:04:30.099Z","2025-11-26T12:04:30.099Z"
"cmifyitqs015c2o7g3zx3njms","LP-0144","Loading Point 144","cmifyit9300n62o7goa8lxcn7",,true,8,-5.449199380619413,118.2637254593063,"Seam-C2","{""sulfur"":0.6845600096622695,""calorie"":4957.035717878378,""moisture"":11.43106024448759,""ash_content"":7.626455242615794}","2025-11-26T12:04:30.100Z","2025-11-26T12:04:30.100Z"
"cmifyitqt015e2o7gpzydboab","LP-0145","Loading Point 145","cmifyit9a00nd2o7groops541",,true,4,-4.833930477753662,119.3356080704034,"Seam-A1","{""sulfur"":0.456409008075445,""calorie"":5398.1958360563,""moisture"":19.87638471275923,""ash_content"":5.705161797996441}","2025-11-26T12:04:30.102Z","2025-11-26T12:04:30.102Z"
"cmifyitqv015g2o7gcma72hr7","LP-0146","Loading Point 146","cmifyit9b00ne2o7giydu2uh9",,true,5,-5.408668681549838,117.7720305102385,"Seam-A1","{""sulfur"":0.3001701503581295,""calorie"":5648.629207604068,""moisture"":15.94164802300698,""ash_content"":10.86262440525211}","2025-11-26T12:04:30.103Z","2025-11-26T12:04:30.103Z"
"cmifyitqx015i2o7gx0vp7dr5","LP-0147","Loading Point 147","cmifyit9u00nv2o7givwkaffz",,true,5,-3.766980386893465,119.3804859395443,"Seam-A1","{""sulfur"":0.2140288581365614,""calorie"":4771.557327494301,""moisture"":13.42442080540013,""ash_content"":8.396501201679882}","2025-11-26T12:04:30.105Z","2025-11-26T12:04:30.105Z"
"cmifyitqz015k2o7gjc0mkcu8","LP-0148","Loading Point 148","cmifyit9w00nx2o7gt19901pc",,true,9,-5.366388943817941,116.2097790501878,"Seam-D","{""sulfur"":0.6449114914377017,""calorie"":5407.765029271175,""moisture"":19.42501462515801,""ash_content"":6.790474107022396}","2025-11-26T12:04:30.107Z","2025-11-26T12:04:30.107Z"
"cmifyitr0015m2o7gh6xudi4u","LP-0149","Loading Point 149","cmifyita600o62o7g2cq1xsi7",,true,5,-3.613729943944457,116.6816131098334,"Seam-B1","{""sulfur"":0.2553325527392095,""calorie"":5093.40686868512,""moisture"":9.263788714546436,""ash_content"":6.828725174166909}","2025-11-26T12:04:30.109Z","2025-11-26T12:04:30.109Z"
"cmifyitr2015o2o7gd8163d4v","LP-0150","Loading Point 150","cmifyitac00ob2o7gwrzs389o",,true,9,-3.225836125390961,115.4412071215893,"Seam-C1","{""sulfur"":0.3058792403950957,""calorie"":4658.230165714148,""moisture"":9.95979947175327,""ash_content"":5.139642273106224}","2025-11-26T12:04:30.110Z","2025-11-26T12:04:30.110Z"
"cmifyitr3015q2o7gnvbbig0i","LP-0151","Loading Point 151","cmifyitad00oc2o7g8rq2z36g",,true,6,-5.088574392290155,115.2925424062907,"Seam-A1","{""sulfur"":0.7773329800602957,""calorie"":5056.01306162781,""moisture"":14.88241509197311,""ash_content"":9.976288760451949}","2025-11-26T12:04:30.111Z","2025-11-26T12:04:30.111Z"
"cmifyitr5015s2o7gsyw23rci","LP-0152","Loading Point 152","cmifyitak00oj2o7gag75khdo",,true,6,-3.68449413593689,115.9331524100214,"Seam-C1","{""sulfur"":0.3040261036465193,""calorie"":5821.315787021182,""moisture"":18.14312948907701,""ash_content"":8.826277667661964}","2025-11-26T12:04:30.113Z","2025-11-26T12:04:30.113Z"
"cmifyitr6015u2o7g8olea0r9","LP-0153","Loading Point 153","cmifyitam00ol2o7g94vhyq2v",,true,8,-3.461694930125879,116.30160337578,"Seam-D","{""sulfur"":0.7579826756137227,""calorie"":5893.887975480499,""moisture"":14.94363870466065,""ash_content"":5.806405269646566}","2025-11-26T12:04:30.114Z","2025-11-26T12:04:30.114Z"
"cmifyitr8015w2o7g4cqccndm","LP-0154","Loading Point 154","cmifyitb000oy2o7g0euthij5",,true,9,-4.79556252371883,117.2015575890626,"Seam-D","{""sulfur"":0.7760027075825162,""calorie"":4837.48385249611,""moisture"":12.78129555000252,""ash_content"":6.14833981366669}","2025-11-26T12:04:30.116Z","2025-11-26T12:04:30.116Z"
"cmifyitr9015y2o7g2dtvm037","LP-0155","Loading Point 155","cmifyitbj00pf2o7gxjt0muxu",,true,3,-3.952862230015471,116.0814303699346,"Seam-C1","{""sulfur"":0.4713612380463156,""calorie"":4618.130792868932,""moisture"":11.13823354550573,""ash_content"":7.553869050777386}","2025-11-26T12:04:30.118Z","2025-11-26T12:04:30.118Z"
"cmifyitrb01602o7g4zu1zz6o","LP-0156","Loading Point 156","cmifyitbm00pi2o7gb613qz99",,true,7,-4.750495443433741,117.8923023725583,"Seam-A1","{""sulfur"":0.5451850475651229,""calorie"":5078.831877303127,""moisture"":18.26638241915349,""ash_content"":5.536737888347723}","2025-11-26T12:04:30.119Z","2025-11-26T12:04:30.119Z"
"cmifyitrc01622o7gioqgdben","LP-0157","Loading Point 157","cmifyitbq00pl2o7gwxuk47do",,true,4,-5.143265214518597,115.8546621768877,"Seam-C1","{""sulfur"":0.7686408233400825,""calorie"":5703.740771119145,""moisture"":19.92412548020632,""ash_content"":10.53787566529942}","2025-11-26T12:04:30.121Z","2025-11-26T12:04:30.121Z"
"cmifyitre01642o7gd256egsb","LP-0158","Loading Point 158","cmifyitc800q22o7gd1ayg9hd",,true,4,-5.478366853833075,119.7007269025276,"Seam-A2","{""sulfur"":0.4496157130806568,""calorie"":4598.715006999676,""moisture"":8.728518744298045,""ash_content"":11.20409755263275}","2025-11-26T12:04:30.122Z","2025-11-26T12:04:30.122Z"
"cmifyitrf01662o7gjvgjft9n","LP-0159","Loading Point 159","cmifyitc900q32o7gez7uphpf",,true,5,-4.869289637436022,115.6662767242555,"Seam-B2","{""sulfur"":0.433984476217245,""calorie"":5468.504209191916,""moisture"":11.38948800555475,""ash_content"":11.56442675078901}","2025-11-26T12:04:30.124Z","2025-11-26T12:04:30.124Z"
"cmifyitrh01682o7gab5a25md","LP-0160","Loading Point 160","cmifyitcb00q52o7gtn7hsmye",,true,8,-4.848905938042969,117.5433916278065,"Seam-C1","{""sulfur"":0.5928547723339995,""calorie"":4859.686924731298,""moisture"":14.23337716778653,""ash_content"":6.675356863956221}","2025-11-26T12:04:30.125Z","2025-11-26T12:04:30.125Z"
"cmifyitri016a2o7ggu3dmbbr","LP-0161","Loading Point 161","cmifyitce00q82o7g101pl06v",,true,6,-5.047470914938412,116.8720885085222,"Seam-B1","{""sulfur"":0.2746890212685277,""calorie"":5944.817555546965,""moisture"":8.830148455990596,""ash_content"":10.8292097455634}","2025-11-26T12:04:30.126Z","2025-11-26T12:04:30.126Z"
"cmifyitrj016c2o7gty5x8sh5","LP-0162","Loading Point 162","cmifyitco00qh2o7gis2howrr",,false,8,-3.803085681786267,119.1110644348257,"Seam-D","{""sulfur"":0.7297489604041105,""calorie"":5484.59556315297,""moisture"":15.95374433131517,""ash_content"":4.416691090467395}","2025-11-26T12:04:30.128Z","2025-11-26T12:04:30.128Z"
"cmifyitrk016e2o7gwz4qrhjf","LP-0163","Loading Point 163","cmifyitct00qm2o7gddrt183t",,true,5,-4.94086569597505,118.5604133908592,"Seam-A1","{""sulfur"":0.5063171590110628,""calorie"":5192.505442960901,""moisture"":15.9655665256965,""ash_content"":9.883984380117289}","2025-11-26T12:04:30.129Z","2025-11-26T12:04:30.129Z"
"cmifyitrm016g2o7grk7thk64","LP-0164","Loading Point 164","cmifyitcw00qo2o7gtejbvd9q",,false,4,-2.816921856110413,119.3388566004418,"Seam-D","{""sulfur"":0.5944423087525212,""calorie"":4633.519776613214,""moisture"":16.43553953270721,""ash_content"":8.59480043076432}","2025-11-26T12:04:30.130Z","2025-11-26T12:04:30.130Z"
"cmifyitrn016i2o7gxxtgjpzn","LP-0165","Loading Point 165","cmifyitcy00qq2o7gvznuqdlu",,true,7,-3.691529602666973,118.4172084160092,"Seam-A2","{""sulfur"":0.2890886051742976,""calorie"":5298.038690818678,""moisture"":13.05894532324473,""ash_content"":6.632633104389505}","2025-11-26T12:04:30.131Z","2025-11-26T12:04:30.131Z"
"cmifyitro016k2o7gv7xloxj4","LP-0166","Loading Point 166","cmifyitd400qv2o7ghnlwpvoy",,true,3,-4.270528261352504,118.1717307896063,"Seam-C1","{""sulfur"":0.3553022277905001,""calorie"":4503.671617869336,""moisture"":12.94512150021315,""ash_content"":8.670113613175024}","2025-11-26T12:04:30.133Z","2025-11-26T12:04:30.133Z"
"cmifyitrq016m2o7guhnrj0fx","LP-0167","Loading Point 167","cmifyitdf00r62o7gnois6hwf",,true,4,-4.40140639500091,115.4981977846963,"Seam-C2","{""sulfur"":0.3123978277613718,""calorie"":5054.552617665699,""moisture"":8.061357278749249,""ash_content"":11.68751089178078}","2025-11-26T12:04:30.134Z","2025-11-26T12:04:30.134Z"
"cmifyitrr016o2o7gqpvjfhc0","LP-0168","Loading Point 168","cmifyitdi00r82o7gnxvofm2o",,true,3,-4.924258329577586,118.818853572485,"Seam-C1","{""sulfur"":0.7593111848815202,""calorie"":5551.054319519494,""moisture"":18.56999698419902,""ash_content"":7.996366967204532}","2025-11-26T12:04:30.136Z","2025-11-26T12:04:30.136Z"
"cmifyitrt016q2o7gozie3zcp","LP-0169","Loading Point 169","cmifyitdo00re2o7g3v33w4zn",,true,9,-2.914223469634392,119.6494088332744,"Seam-C2","{""sulfur"":0.6978211276161665,""calorie"":5361.131405603988,""moisture"":10.7294180080885,""ash_content"":8.631370310578973}","2025-11-26T12:04:30.137Z","2025-11-26T12:04:30.137Z"
"cmifyitru016s2o7gtnldxl72","LP-0170","Loading Point 170","cmifyitdq00rg2o7gcm9wynp0",,true,5,-4.621526590715958,115.5123021181558,"Seam-C2","{""sulfur"":0.59115949607009,""calorie"":4940.426734894792,""moisture"":19.50659602380859,""ash_content"":10.39153979059202}","2025-11-26T12:04:30.139Z","2025-11-26T12:04:30.139Z"
"cmifyitrw016u2o7g3z28bfl2","LP-0171","Loading Point 171","cmifyitdr00rh2o7gx3qft5uk",,true,7,-4.52328269095335,118.3081369193932,"Seam-A1","{""sulfur"":0.3808886034439898,""calorie"":5217.092339041861,""moisture"":13.53886312780216,""ash_content"":10.41575869680238}","2025-11-26T12:04:30.140Z","2025-11-26T12:04:30.140Z"
"cmifyitrx016w2o7glkjqj42m","LP-0172","Loading Point 172","cmifyitdu00rk2o7gmd6hoywa",,true,4,-3.157154492958271,118.1399442412987,"Seam-B2","{""sulfur"":0.438599512017017,""calorie"":4692.002044925796,""moisture"":13.5260352510073,""ash_content"":9.515596504675903}","2025-11-26T12:04:30.142Z","2025-11-26T12:04:30.142Z"
"cmifyitrz016y2o7gbobgna5w","LP-0173","Loading Point 173","cmifyitdv00rl2o7goql5o1zn",,true,4,-2.587204335239775,119.8555956418695,"Seam-D","{""sulfur"":0.5122071808757072,""calorie"":5109.536723246182,""moisture"":15.61734729303934,""ash_content"":5.468842217959907}","2025-11-26T12:04:30.143Z","2025-11-26T12:04:30.143Z"
"cmifyits001702o7gkzyrd5ce","LP-0174","Loading Point 174","cmifyitdy00rn2o7gyoglwmw2",,true,9,-4.619626330794918,119.7558367410614,"Seam-B1","{""sulfur"":0.6665062318594042,""calorie"":4658.357994140331,""moisture"":12.07560384069641,""ash_content"":4.158125187303961}","2025-11-26T12:04:30.144Z","2025-11-26T12:04:30.144Z"
"cmifyits101722o7gdpyh8iu2","LP-0175","Loading Point 175","cmifyite400rt2o7gi54z38jf",,true,6,-3.663836867129013,115.798014814148,"Seam-C1","{""sulfur"":0.3951205275858699,""calorie"":5088.447170553227,""moisture"":11.53741257110877,""ash_content"":8.17376735416371}","2025-11-26T12:04:30.146Z","2025-11-26T12:04:30.146Z"
"cmifyits301742o7g3geqfa60","LP-0176","Loading Point 176","cmifyitec00s12o7gydc7fq3n",,true,6,-4.125706690580306,117.8105935315605,"Seam-A1","{""sulfur"":0.2242535608247635,""calorie"":5380.307796070409,""moisture"":14.37642231564554,""ash_content"":10.22096096895584}","2025-11-26T12:04:30.147Z","2025-11-26T12:04:30.147Z"
"cmifyits401762o7gx2z0ofod","LP-0177","Loading Point 177","cmifyiten00sb2o7g4rf6je0n",,true,6,-3.628722307419077,119.6040749607157,"Seam-C2","{""sulfur"":0.5207916224012374,""calorie"":5404.809706358998,""moisture"":8.601137251869105,""ash_content"":11.04704930300894}","2025-11-26T12:04:30.149Z","2025-11-26T12:04:30.149Z"
"cmifyits501782o7ggvw5jqtm","LP-0178","Loading Point 178","cmifyites00sf2o7ga8k3q59x",,true,7,-3.49150950314704,117.3305477647593,"Seam-A2","{""sulfur"":0.2017544137210996,""calorie"":5587.996936962481,""moisture"":19.09449221728506,""ash_content"":10.07363350277359}","2025-11-26T12:04:30.150Z","2025-11-26T12:04:30.150Z"
"cmifyits7017a2o7g56we7q2u","LP-0179","Loading Point 179","cmifyitev00si2o7gkat5l02x",,true,6,-4.548183077852486,119.4916000453691,"Seam-C1","{""sulfur"":0.3431147259159545,""calorie"":4560.032897403724,""moisture"":9.89440742753138,""ash_content"":10.59643791759233}","2025-11-26T12:04:30.151Z","2025-11-26T12:04:30.151Z"
"cmifyits8017c2o7gzz1xjxlx","LP-0180","Loading Point 180","cmifyitew00sj2o7gg51pxxs7",,true,6,-4.224202142940803,119.0352248343606,"Seam-A1","{""sulfur"":0.5522354272270151,""calorie"":4560.674660693642,""moisture"":11.77277579053517,""ash_content"":9.25969763027366}","2025-11-26T12:04:30.153Z","2025-11-26T12:04:30.153Z"
"cmifyitsa017e2o7g2jy5sezg","LP-0181","Loading Point 181","cmifyitf600ss2o7gxtpkswrr",,true,3,-4.060970672094247,118.9654888627677,"Seam-A1","{""sulfur"":0.3288920035381078,""calorie"":5821.391087564723,""moisture"":9.937463424547072,""ash_content"":4.205967845812459}","2025-11-26T12:04:30.154Z","2025-11-26T12:04:30.154Z"
"cmifyitsb017g2o7glg5j0wm3","LP-0182","Loading Point 182","cmifyitf700st2o7gqbxb40c3",,true,7,-3.867346793076261,115.7613102624957,"Seam-B1","{""sulfur"":0.2492928813404491,""calorie"":4974.555207813554,""moisture"":17.82157840828021,""ash_content"":5.361636227688447}","2025-11-26T12:04:30.156Z","2025-11-26T12:04:30.156Z"
"cmifyitsd017i2o7gv7uqj01y","LP-0183","Loading Point 183","cmifyitf900sv2o7gebfypzh0",,true,6,-4.544481774866881,117.0319475477288,"Seam-C1","{""sulfur"":0.3675375987363622,""calorie"":5666.717183803312,""moisture"":17.83090177451349,""ash_content"":11.21082833533431}","2025-11-26T12:04:30.157Z","2025-11-26T12:04:30.157Z"
"cmifyitse017k2o7gogq1waw3","LP-0184","Loading Point 184","cmifyitfe00sz2o7gqopfwarn",,true,8,-3.819128248875943,118.2440800199398,"Seam-C1","{""sulfur"":0.4787943684262083,""calorie"":5018.10981880659,""moisture"":17.73244672985884,""ash_content"":11.20714481993486}","2025-11-26T12:04:30.158Z","2025-11-26T12:04:30.158Z"
"cmifyitsg017m2o7gm3taw9wk","LP-0185","Loading Point 185","cmifyitfk00t52o7ggqdavz7o",,false,4,-3.344250786461109,119.6092934200788,"Seam-C1","{""sulfur"":0.5555403608164007,""calorie"":5399.371799282118,""moisture"":17.27022054873232,""ash_content"":8.269723434747366}","2025-11-26T12:04:30.160Z","2025-11-26T12:04:30.160Z"
"cmifyitsh017o2o7g3dhsmqcp","LP-0186","Loading Point 186","cmifyitfn00t82o7ge257vm45",,true,4,-4.442032529443498,118.0406539263612,"Seam-C1","{""sulfur"":0.2044528157570253,""calorie"":5831.781185879292,""moisture"":12.8610487837326,""ash_content"":4.087413117648744}","2025-11-26T12:04:30.161Z","2025-11-26T12:04:30.161Z"
"cmifyitsi017q2o7gidcdi9on","LP-0187","Loading Point 187","cmifyitg100tk2o7giipl4sb7",,true,6,-3.079454725075136,116.175460417183,"Seam-A2","{""sulfur"":0.7038885190207846,""calorie"":5044.443607209532,""moisture"":16.54479256815435,""ash_content"":8.50965457956008}","2025-11-26T12:04:30.163Z","2025-11-26T12:04:30.163Z"
"cmifyitsk017s2o7gxejegk7b","LP-0188","Loading Point 188","cmifyitg600tp2o7g9igott34",,true,3,-4.851643002716964,119.5464760822444,"Seam-B1","{""sulfur"":0.5450651667682707,""calorie"":5688.54244295726,""moisture"":17.1142331039534,""ash_content"":11.35718389318833}","2025-11-26T12:04:30.164Z","2025-11-26T12:04:30.164Z"
"cmifyitsl017u2o7glsobz44o","LP-0189","Loading Point 189","cmifyitg800tr2o7g0fux6slh",,true,4,-4.96694489999331,116.8835031958847,"Seam-B2","{""sulfur"":0.3930796658840004,""calorie"":5746.432071118671,""moisture"":10.85183840887692,""ash_content"":11.149930288263}","2025-11-26T12:04:30.165Z","2025-11-26T12:04:30.165Z"
"cmifyitsn017w2o7gq5od2p16","LP-0190","Loading Point 190","cmifyitgh00tz2o7g1i5o9zzz",,true,8,-2.616418638853648,117.7816421994703,"Seam-B2","{""sulfur"":0.7661031321943894,""calorie"":5931.60208883332,""moisture"":19.9748465754631,""ash_content"":7.676835051511738}","2025-11-26T12:04:30.167Z","2025-11-26T12:04:30.167Z"
"cmifyitso017y2o7gk4bf4kmr","LP-0191","Loading Point 191","cmifyitgq00u72o7gozf9qynn",,true,9,-3.079133749936176,117.675641739229,"Seam-C2","{""sulfur"":0.7996891434472457,""calorie"":5500.644093072537,""moisture"":14.1769424680352,""ash_content"":9.877889497043563}","2025-11-26T12:04:30.168Z","2025-11-26T12:04:30.168Z"
"cmifyitsp01802o7g3gkp8pu0","LP-0192","Loading Point 192","cmifyitgt00ua2o7gyq87x5ri",,true,7,-2.564419264541625,118.2392946578217,"Seam-D","{""sulfur"":0.3748841931921412,""calorie"":5971.237857028957,""moisture"":12.86864942498134,""ash_content"":8.408950441468798}","2025-11-26T12:04:30.170Z","2025-11-26T12:04:30.170Z"
"cmifyitsr01822o7gl8pgaqj4","LP-0193","Loading Point 193","cmifyith100ui2o7g5i6fryv5",,true,9,-3.468597134184058,118.6936178901494,"Seam-C2","{""sulfur"":0.784888223975786,""calorie"":4788.981707048852,""moisture"":19.98968994769423,""ash_content"":10.18937123352753}","2025-11-26T12:04:30.172Z","2025-11-26T12:04:30.172Z"
"cmifyitst01842o7gg9teai8w","LP-0194","Loading Point 194","cmifyithh00ux2o7g7rbi12ku",,true,5,-3.24793201800896,115.3985260247677,"Seam-A2","{""sulfur"":0.3746316801660108,""calorie"":5711.291526061608,""moisture"":13.69782652603287,""ash_content"":6.920468155056932}","2025-11-26T12:04:30.173Z","2025-11-26T12:04:30.173Z"
"cmifyitsu01862o7g1ydykbu0","LP-0195","Loading Point 195","cmifyithu00v92o7gfcl5nxpb",,true,3,-5.181828704221537,117.3292246646793,"Seam-B2","{""sulfur"":0.4621388117082725,""calorie"":4570.811197755243,""moisture"":18.73039361975061,""ash_content"":6.857752584423274}","2025-11-26T12:04:30.175Z","2025-11-26T12:04:30.175Z"
"cmifyitsx01882o7g0tqqz08k","LP-0196","Loading Point 196","cmifyithz00ve2o7g8t35088k",,true,4,-4.263722001734696,119.1183050476733,"Seam-A2","{""sulfur"":0.2955448237053336,""calorie"":5064.489365416714,""moisture"":17.6867339910938,""ash_content"":5.90054835695971}","2025-11-26T12:04:30.177Z","2025-11-26T12:04:30.177Z"
"cmifyitsy018a2o7gr5n3pram","LP-0197","Loading Point 197","cmifyiti500vj2o7ghko4oufk",,true,6,-4.012369792562914,119.2252743021048,"Seam-A2","{""sulfur"":0.5902524211589482,""calorie"":5184.291125021254,""moisture"":12.91166589627663,""ash_content"":8.998130560822158}","2025-11-26T12:04:30.179Z","2025-11-26T12:04:30.179Z"
"cmifyitt0018c2o7gxigoqtf5","LP-0198","Loading Point 198","cmifyitic00vq2o7g4yicblew",,true,8,-3.29751043174185,116.1203294364919,"Seam-C1","{""sulfur"":0.6123505362161642,""calorie"":5507.237566455989,""moisture"":13.50319270108444,""ash_content"":6.884642962500131}","2025-11-26T12:04:30.180Z","2025-11-26T12:04:30.180Z"
"cmifyitt1018e2o7gynhycgoz","LP-0199","Loading Point 199","cmifyitin00w02o7gwiq87d70",,true,5,-4.214197302744758,119.650916616272,"Seam-B1","{""sulfur"":0.6783855847794842,""calorie"":4637.824752456595,""moisture"":19.26620176403678,""ash_content"":11.21393647443108}","2025-11-26T12:04:30.182Z","2025-11-26T12:04:30.182Z"
"cmifyitt3018g2o7g4ov9l2jr","LP-0200","Loading Point 200","cmifyitio00w12o7gs6n0aaq3",,true,6,-3.743225981757094,115.3089880275329,"Seam-B1","{""sulfur"":0.6804405355057829,""calorie"":5719.527354661718,""moisture"":12.51456721149282,""ash_content"":8.647640291356069}","2025-11-26T12:04:30.183Z","2025-11-26T12:04:30.183Z"
"cmifyitt4018i2o7gdswsclwt","LP-0201","Loading Point 201","cmifyitis00w52o7g63mk8fqf",,true,5,-4.871727020042231,116.7109531780527,"Seam-D","{""sulfur"":0.5156775277583839,""calorie"":4610.063250049343,""moisture"":9.23393300793278,""ash_content"":5.436544267351966}","2025-11-26T12:04:30.185Z","2025-11-26T12:04:30.185Z"
"cmifyitt6018k2o7gmjt7jao9","LP-0202","Loading Point 202","cmifyitiv00w72o7gzc513241",,true,7,-4.358314129163125,115.2034299885858,"Seam-B2","{""sulfur"":0.5795368308240101,""calorie"":5309.697805530615,""moisture"":17.28336600709384,""ash_content"":6.683144899405841}","2025-11-26T12:04:30.186Z","2025-11-26T12:04:30.186Z"
"cmifyitt7018m2o7gkl4xc0n7","LP-0203","Loading Point 203","cmifyitiw00w82o7g9wj63xn2",,true,4,-2.657085451542428,116.6656955571498,"Seam-C1","{""sulfur"":0.4296100225087064,""calorie"":5985.634603570544,""moisture"":17.764885749359,""ash_content"":6.663374062490984}","2025-11-26T12:04:30.188Z","2025-11-26T12:04:30.188Z"
"cmifyitt9018o2o7g6q9hutp3","LP-0204","Loading Point 204","cmifyitiy00wa2o7g70phtzih",,true,3,-4.521952234393569,117.8420528439667,"Seam-B1","{""sulfur"":0.3833076145747309,""calorie"":5663.890358339744,""moisture"":18.22823451751962,""ash_content"":9.891070530738128}","2025-11-26T12:04:30.189Z","2025-11-26T12:04:30.189Z"
"cmifyitta018q2o7g7zuapwxd","LP-0205","Loading Point 205","cmifyitiz00wb2o7ghk0rsiqd",,true,8,-4.907142323568346,119.6467379397956,"Seam-C2","{""sulfur"":0.2966214299378761,""calorie"":5195.985094463846,""moisture"":18.29786182981015,""ash_content"":10.99631159338557}","2025-11-26T12:04:30.191Z","2025-11-26T12:04:30.191Z"
"cmifyittc018s2o7gb9ugzl7o","LP-0206","Loading Point 206","cmifyitj000wc2o7gujzq9atx",,true,5,-4.633247671121766,119.299547853227,"Seam-D","{""sulfur"":0.2352335508825828,""calorie"":5169.615242217264,""moisture"":14.86853413870753,""ash_content"":10.12273631432867}","2025-11-26T12:04:30.192Z","2025-11-26T12:04:30.192Z"
"cmifyittd018u2o7gtahnoi69","LP-0207","Loading Point 207","cmifyitj200wd2o7gr4epr5di",,true,7,-3.787900556260638,115.6122931109733,"Seam-A1","{""sulfur"":0.7224205350627044,""calorie"":5315.220775684494,""moisture"":12.78295603179913,""ash_content"":5.082911234837985}","2025-11-26T12:04:30.193Z","2025-11-26T12:04:30.193Z"
"cmifyitte018w2o7gppm01fs7","LP-0208","Loading Point 208","cmifyitjd00wo2o7g9xe66cy8",,false,9,-3.401139131370361,117.7421273158755,"Seam-B1","{""sulfur"":0.6626965623250651,""calorie"":5311.249321616429,""moisture"":10.99766609343614,""ash_content"":8.054614376453229}","2025-11-26T12:04:30.195Z","2025-11-26T12:04:30.195Z"
"cmifyittg018y2o7gor1fu07b","LP-0209","Loading Point 209","cmifyitji00ws2o7gjsojn142",,true,9,-5.059395462030219,117.2338953082587,"Seam-D","{""sulfur"":0.4572582280170092,""calorie"":5416.982765303475,""moisture"":15.55616694319778,""ash_content"":6.216829445967473}","2025-11-26T12:04:30.196Z","2025-11-26T12:04:30.196Z"
"cmifyitth01902o7g4wahc2ue","LP-0210","Loading Point 210","cmifyitjm00ww2o7gs5c3ecme",,true,6,-3.081997447164077,115.5353624515971,"Seam-C1","{""sulfur"":0.4962990200101635,""calorie"":5031.073927744213,""moisture"":11.69493760638158,""ash_content"":9.263641756634497}","2025-11-26T12:04:30.198Z","2025-11-26T12:04:30.198Z"
"cmifyittj01922o7gwuss6r0b","LP-0211","Loading Point 211","cmifyitjz00x72o7gh116ntov",,true,5,-4.606843544881946,116.0540580205183,"Seam-C1","{""sulfur"":0.6993377845806472,""calorie"":5253.195065838063,""moisture"":13.14093183996922,""ash_content"":7.40199211511997}","2025-11-26T12:04:30.199Z","2025-11-26T12:04:30.199Z"
"cmifyittk01942o7gx69qbirx","LP-0212","Loading Point 212","cmifyitk100x82o7ghirnqqch",,true,4,-4.118376650849781,118.7158249986684,"Seam-C2","{""sulfur"":0.3662788889823004,""calorie"":5222.6902241456,""moisture"":14.03587529846795,""ash_content"":7.01729189342471}","2025-11-26T12:04:30.201Z","2025-11-26T12:04:30.201Z"
"cmifyittm01962o7gd6jro4hy","LP-0213","Loading Point 213","cmifyit1u00gp2o7gqzt93hpw",,true,3,-3.540236820062056,119.17631323133,"Seam-B1","{""sulfur"":0.5259344158298999,""calorie"":5167.29907913337,""moisture"":19.02153007927416,""ash_content"":8.59884501649247}","2025-11-26T12:04:30.202Z","2025-11-26T12:04:30.202Z"
"cmifyittn01982o7g8f6x6yd0","LP-0214","Loading Point 214","cmifyit2100gt2o7g1d8n35a2",,true,9,-2.783965957119862,118.7534476663964,"Seam-A2","{""sulfur"":0.4464382776666557,""calorie"":5929.557967180475,""moisture"":17.14356886075145,""ash_content"":6.072672446865171}","2025-11-26T12:04:30.204Z","2025-11-26T12:04:30.204Z"
"cmifyittp019a2o7gtuth6acc","LP-0215","Loading Point 215","cmifyit2e00h52o7gb7y04i5h",,true,4,-3.652915568892288,118.061951561132,"Seam-A2","{""sulfur"":0.403735944731653,""calorie"":5823.65154125157,""moisture"":19.3337348417305,""ash_content"":6.085161772497692}","2025-11-26T12:04:30.205Z","2025-11-26T12:04:30.205Z"
"cmifyittq019c2o7gqczkb09c","LP-0216","Loading Point 216","cmifyit2i00h92o7gled0mdpu",,true,8,-4.516253388232236,118.1539535496466,"Seam-A2","{""sulfur"":0.4891787818461683,""calorie"":5066.638576524205,""moisture"":9.986056581736584,""ash_content"":7.884292779783204}","2025-11-26T12:04:30.207Z","2025-11-26T12:04:30.207Z"
"cmifyitts019e2o7g2i7e91qn","LP-0217","Loading Point 217","cmifyit2u00hk2o7gneh5k5br",,true,5,-3.777720026360567,118.796984059333,"Seam-D","{""sulfur"":0.6204688227107745,""calorie"":4753.485603868642,""moisture"":13.46497498814071,""ash_content"":9.479244672250635}","2025-11-26T12:04:30.208Z","2025-11-26T12:04:30.208Z"
"cmifyittt019g2o7gggp4bs20","LP-0218","Loading Point 218","cmifyit2x00hn2o7gnvitw2xi",,true,4,-3.927251458640235,116.1048314922898,"Seam-B1","{""sulfur"":0.7283097614987353,""calorie"":4615.310384449767,""moisture"":15.46724466908303,""ash_content"":5.095737846749486}","2025-11-26T12:04:30.210Z","2025-11-26T12:04:30.210Z"
"cmifyittv019i2o7gcounu6h4","LP-0219","Loading Point 219","cmifyit2z00hp2o7glhq3h6yx",,true,3,-3.042676576920928,116.0052927410768,"Seam-B2","{""sulfur"":0.7251043523698952,""calorie"":5238.046702243154,""moisture"":9.080190084776895,""ash_content"":7.447356631054387}","2025-11-26T12:04:30.211Z","2025-11-26T12:04:30.211Z"
"cmifyittw019k2o7g0t52ut7c","LP-0220","Loading Point 220","cmifyit3200hs2o7gejl8ssw2",,true,3,-3.423135493816773,119.186753259926,"Seam-B2","{""sulfur"":0.2162378002443767,""calorie"":5326.397606354416,""moisture"":12.2683875904546,""ash_content"":7.412489330305112}","2025-11-26T12:04:30.212Z","2025-11-26T12:04:30.212Z"
"cmifyitty019m2o7giqd0safu","LP-0221","Loading Point 221","cmifyit3600hv2o7gx6hag8ee",,true,8,-5.450656487527309,115.0589875126852,"Seam-D","{""sulfur"":0.7043973275590973,""calorie"":4886.082648986496,""moisture"":10.11382344347217,""ash_content"":6.68290986867596}","2025-11-26T12:04:30.214Z","2025-11-26T12:04:30.214Z"
"cmifyittz019o2o7goha8u5ie","LP-0222","Loading Point 222","cmifyit3700hw2o7g35z9u7hf",,true,6,-4.509654169701716,118.9359381804061,"Seam-C2","{""sulfur"":0.4819907610668417,""calorie"":5776.680564278482,""moisture"":15.16079545396856,""ash_content"":5.705419750945918}","2025-11-26T12:04:30.216Z","2025-11-26T12:04:30.216Z"
"cmifyitu1019q2o7graygethe","LP-0223","Loading Point 223","cmifyit3d00i12o7glf6lggeg",,true,7,-4.211040655573351,117.2837282802998,"Seam-B1","{""sulfur"":0.404751093775509,""calorie"":4777.856730056378,""moisture"":10.11267504533708,""ash_content"":8.885253645341136}","2025-11-26T12:04:30.217Z","2025-11-26T12:04:30.217Z"
"cmifyitu2019s2o7gvlgt8s1d","LP-0224","Loading Point 224","cmifyit3e00i22o7gwtbgx71g",,true,9,-3.373583380268858,119.6133899992269,"Seam-C1","{""sulfur"":0.6248748770100925,""calorie"":5887.709985984657,""moisture"":17.97753917810964,""ash_content"":4.362380354692066}","2025-11-26T12:04:30.218Z","2025-11-26T12:04:30.218Z"
"cmifyitu3019u2o7gxbiisxr5","LP-0225","Loading Point 225","cmifyit3y00ij2o7gcq657djj",,true,7,-4.299610439804162,116.987918361302,"Seam-B2","{""sulfur"":0.4747169412683167,""calorie"":5835.900550848419,""moisture"":17.69655191788019,""ash_content"":9.462016931541532}","2025-11-26T12:04:30.220Z","2025-11-26T12:04:30.220Z"
"cmifyitu5019w2o7g7algmna1","LP-0226","Loading Point 226","cmifyit4600iq2o7guydcooc8",,true,5,-4.536187177371259,118.7673768893956,"Seam-C2","{""sulfur"":0.3468648146348,""calorie"":5735.429385421055,""moisture"":8.667279526210436,""ash_content"":4.064037428040038}","2025-11-26T12:04:30.222Z","2025-11-26T12:04:30.222Z"
"cmifyitu7019y2o7gbcjz35iu","LP-0227","Loading Point 227","cmifyit4q00j72o7gh4ky2kwz",,true,5,-4.82396297085527,119.1657595758658,"Seam-C1","{""sulfur"":0.62984861716536,""calorie"":5423.298403971635,""moisture"":10.48091686162088,""ash_content"":4.672325199307164}","2025-11-26T12:04:30.223Z","2025-11-26T12:04:30.223Z"
"cmifyitu801a02o7gjnwam5e2","LP-0228","Loading Point 228","cmifyit4t00ja2o7ghypzreuc",,true,5,-5.27098149874092,117.7263201560236,"Seam-D","{""sulfur"":0.2727299315682226,""calorie"":5555.339994407546,""moisture"":11.13007186121077,""ash_content"":8.486120037722571}","2025-11-26T12:04:30.225Z","2025-11-26T12:04:30.225Z"
"cmifyitua01a22o7gi3v2ctt7","LP-0229","Loading Point 229","cmifyit5h00jv2o7gg5a6q5an",,true,6,-4.361446921712289,117.0602741576565,"Seam-A2","{""sulfur"":0.2993102640954753,""calorie"":4827.298821205854,""moisture"":12.17202707296435,""ash_content"":5.93308285542761}","2025-11-26T12:04:30.226Z","2025-11-26T12:04:30.226Z"
"cmifyitub01a42o7g1sx5kvp9","LP-0230","Loading Point 230","cmifyit5q00k22o7g98jhyolw",,true,9,-4.075908650296116,117.460327991982,"Seam-A2","{""sulfur"":0.5851273520453245,""calorie"":5690.38055672108,""moisture"":15.9309104230906,""ash_content"":5.607028705148327}","2025-11-26T12:04:30.228Z","2025-11-26T12:04:30.228Z"
"cmifyitud01a62o7gckgviw0h","LP-0231","Loading Point 231","cmifyit6c00km2o7gc4x32fvk",,true,3,-4.198921832756866,115.2319752710283,"Seam-C1","{""sulfur"":0.5515528070612448,""calorie"":4892.980815405009,""moisture"":13.55184408462401,""ash_content"":9.420157761733016}","2025-11-26T12:04:30.229Z","2025-11-26T12:04:30.229Z"
"cmifyitue01a82o7gf33x3tf5","LP-0232","Loading Point 232","cmifyit6d00kn2o7gmaspcbbb",,true,9,-3.581248761870237,116.3350881929809,"Seam-A2","{""sulfur"":0.527546741266177,""calorie"":4877.867403510018,""moisture"":14.06053867791365,""ash_content"":8.527597361474422}","2025-11-26T12:04:30.230Z","2025-11-26T12:04:30.230Z"
"cmifyituf01aa2o7gnfxetxtp","LP-0233","Loading Point 233","cmifyit6j00kt2o7gkjbdj3tu",,true,5,-4.206893636036043,119.776890732793,"Seam-D","{""sulfur"":0.2905505439501291,""calorie"":5649.714948358999,""moisture"":11.39067814107849,""ash_content"":9.947910870648585}","2025-11-26T12:04:30.232Z","2025-11-26T12:04:30.232Z"
"cmifyituh01ac2o7glulsvth2","LP-0234","Loading Point 234","cmifyit6p00ky2o7gf7ht3l0x",,true,5,-3.505885512543596,119.6028162085007,"Seam-A1","{""sulfur"":0.4101862183995949,""calorie"":5751.872145986487,""moisture"":16.50803594092273,""ash_content"":10.94959077088049}","2025-11-26T12:04:30.233Z","2025-11-26T12:04:30.233Z"
"cmifyitui01ae2o7gt9dak5wd","LP-0235","Loading Point 235","cmifyit6q00kz2o7gw6pjhjok",,true,6,-3.662310037051607,116.064845378745,"Seam-C1","{""sulfur"":0.7459440829226864,""calorie"":5472.458365960662,""moisture"":19.50161811717025,""ash_content"":10.42808722938533}","2025-11-26T12:04:30.235Z","2025-11-26T12:04:30.235Z"
"cmifyituj01ag2o7gmldva4bw","LP-0236","Loading Point 236","cmifyit6v00l42o7gvpztaagi",,true,5,-2.665162567786254,119.9735026707415,"Seam-A1","{""sulfur"":0.4127454431916973,""calorie"":5239.749662694252,""moisture"":8.41396224960729,""ash_content"":10.13196060218467}","2025-11-26T12:04:30.236Z","2025-11-26T12:04:30.236Z"
"cmifyitul01ai2o7gkdc5i3gu","LP-0237","Loading Point 237","cmifyit6z00l82o7golrhinl7",,true,6,-2.876548125330104,116.6095905958206,"Seam-B2","{""sulfur"":0.2343529437990788,""calorie"":5734.690110639222,""moisture"":12.1757567919208,""ash_content"":5.345439407134442}","2025-11-26T12:04:30.237Z","2025-11-26T12:04:30.237Z"
"cmifyitun01ak2o7ggv5nrczq","LP-0238","Loading Point 238","cmifyit7600le2o7g7agqz6dp",,true,4,-5.279197242800384,117.0856457107527,"Seam-C1","{""sulfur"":0.4915928832412999,""calorie"":4625.16401581349,""moisture"":15.32267730905028,""ash_content"":8.632321497880676}","2025-11-26T12:04:30.239Z","2025-11-26T12:04:30.239Z"
"cmifyituo01am2o7gf4kjo9f8","LP-0239","Loading Point 239","cmifyit7800lg2o7gp0o0ad50",,true,8,-4.920704249225582,115.1894174578074,"Seam-B1","{""sulfur"":0.2019949381082211,""calorie"":4603.706554039857,""moisture"":10.48870143231585,""ash_content"":6.530147711021012}","2025-11-26T12:04:30.241Z","2025-11-26T12:04:30.241Z"
"cmifyituq01ao2o7g0fkdgt33","LP-0240","Loading Point 240","cmifyit7900lh2o7gg6gfrkho",,true,4,-5.068090375238109,117.0799962152862,"Seam-B1","{""sulfur"":0.229410919242482,""calorie"":5680.608763901476,""moisture"":14.58541563849406,""ash_content"":9.556625485303925}","2025-11-26T12:04:30.242Z","2025-11-26T12:04:30.242Z"
"cmifyitur01aq2o7g552heuud","LP-0241","Loading Point 241","cmifyit7d00ll2o7gdew1a0mn",,true,5,-3.310954626376245,117.4813667719392,"Seam-A1","{""sulfur"":0.5234556689029046,""calorie"":5003.606925651367,""moisture"":17.24586856609086,""ash_content"":10.84301821678637}","2025-11-26T12:04:30.244Z","2025-11-26T12:04:30.244Z"
"cmifyitut01as2o7g3l6o0oug","LP-0242","Loading Point 242","cmifyit7j00lr2o7g4iyri5s0",,true,4,-3.186869896860012,119.0982613544531,"Seam-C1","{""sulfur"":0.5227100621422749,""calorie"":5083.481036812824,""moisture"":9.518473522115066,""ash_content"":6.136006875666473}","2025-11-26T12:04:30.245Z","2025-11-26T12:04:30.245Z"
"cmifyituu01au2o7goq1ar5tz","LP-0243","Loading Point 243","cmifyit7q00lx2o7g989f377j",,true,5,-4.892695281752824,118.338340032549,"Seam-D","{""sulfur"":0.2573986438839907,""calorie"":5188.69779029671,""moisture"":10.52825516273619,""ash_content"":6.794442950759313}","2025-11-26T12:04:30.247Z","2025-11-26T12:04:30.247Z"
"cmifyituw01aw2o7gz239i9kd","LP-0244","Loading Point 244","cmifyit8000m62o7gwo64bswx",,true,9,-3.755493199006694,118.8693305970297,"Seam-C1","{""sulfur"":0.3361875558301724,""calorie"":4886.837997185698,""moisture"":10.74563279876159,""ash_content"":7.521865540765642}","2025-11-26T12:04:30.248Z","2025-11-26T12:04:30.248Z"
"cmifyitux01ay2o7g55fcrzvg","LP-0245","Loading Point 245","cmifyit8400ma2o7g4mtrqw5l",,false,4,-3.557934983952698,115.7668117232481,"Seam-D","{""sulfur"":0.6470288846789254,""calorie"":5488.903890810978,""moisture"":13.53676186597223,""ash_content"":10.82655191482013}","2025-11-26T12:04:30.249Z","2025-11-26T12:04:30.249Z"
"cmifyituy01b02o7gg0nrf3j3","LP-0246","Loading Point 246","cmifyit8g00ml2o7gzs0x0vy2",,true,7,-3.48717741501546,117.1280411449896,"Seam-A1","{""sulfur"":0.4522639555828805,""calorie"":5678.067303528305,""moisture"":11.45675262047367,""ash_content"":4.853808179180939}","2025-11-26T12:04:30.251Z","2025-11-26T12:04:30.251Z"
"cmifyitv001b22o7g9sfrcme4","LP-0247","Loading Point 247","cmifyit8k00mp2o7g2akv6lyu",,true,3,-5.310146280264471,116.0525536598152,"Seam-C2","{""sulfur"":0.5021061359451099,""calorie"":5350.458765013733,""moisture"":19.7806189080991,""ash_content"":11.87218077457169}","2025-11-26T12:04:30.252Z","2025-11-26T12:04:30.252Z"
"cmifyitv201b42o7g28g4oqlr","LP-0248","Loading Point 248","cmifyit8r00mv2o7gaj7onlzy",,true,4,-4.995284216961243,119.2391314887833,"Seam-C1","{""sulfur"":0.7992118339875773,""calorie"":5627.291270381289,""moisture"":13.78025927134209,""ash_content"":8.881860512212137}","2025-11-26T12:04:30.254Z","2025-11-26T12:04:30.254Z"
"cmifyitv401b62o7gqule13w5","LP-0249","Loading Point 249","cmifyit8w00n02o7gsqznreun",,true,5,-4.213328052003996,116.417648252356,"Seam-C1","{""sulfur"":0.2813844826829121,""calorie"":5139.155325713425,""moisture"":17.74442124793345,""ash_content"":10.19417958884581}","2025-11-26T12:04:30.256Z","2025-11-26T12:04:30.256Z"
"cmifyitv601b82o7g7646yy3c","LP-0250","Loading Point 250","cmifyit9300n62o7goa8lxcn7",,true,4,-5.449757365580786,118.2670674537358,"Seam-B1","{""sulfur"":0.2913803612946176,""calorie"":4637.029728992228,""moisture"":12.760987510558,""ash_content"":5.911257062014267}","2025-11-26T12:04:30.258Z","2025-11-26T12:04:30.258Z"
"cmifyitv701ba2o7g61d08q5e","LP-0251","Loading Point 251","cmifyit9a00nd2o7groops541",,true,3,-4.831971978811473,119.3332037600272,"Seam-D","{""sulfur"":0.7832991129940066,""calorie"":4587.012916876364,""moisture"":8.777877379215564,""ash_content"":6.845960264562187}","2025-11-26T12:04:30.260Z","2025-11-26T12:04:30.260Z"
"cmifyitv901bc2o7gnkqy9nh8","LP-0252","Loading Point 252","cmifyit9b00ne2o7giydu2uh9",,true,8,-5.410403836519657,117.7639609000007,"Seam-A2","{""sulfur"":0.3255532611108605,""calorie"":5346.271794308162,""moisture"":14.91152022572622,""ash_content"":7.646469716961654}","2025-11-26T12:04:30.262Z","2025-11-26T12:04:30.262Z"
"cmifyitvb01be2o7g1rd712l4","LP-0253","Loading Point 253","cmifyit9u00nv2o7givwkaffz",,true,8,-3.764811369829597,119.3808993029036,"Seam-D","{""sulfur"":0.6488995304717211,""calorie"":4822.24959332564,""moisture"":16.6584194102361,""ash_content"":10.85493860803438}","2025-11-26T12:04:30.264Z","2025-11-26T12:04:30.264Z"
"cmifyitvd01bg2o7gxeogpeq1","LP-0254","Loading Point 254","cmifyit9w00nx2o7gt19901pc",,true,7,-5.370246141170761,116.2100614245672,"Seam-A2","{""sulfur"":0.2228691468104099,""calorie"":5176.282679692277,""moisture"":14.91104157666933,""ash_content"":9.065484939606787}","2025-11-26T12:04:30.266Z","2025-11-26T12:04:30.266Z"
"cmifyitvf01bi2o7g4czsvc5l","LP-0255","Loading Point 255","cmifyita600o62o7g2cq1xsi7",,true,4,-3.607001291915952,116.677127318869,"Seam-B2","{""sulfur"":0.3011992063232699,""calorie"":5310.556090733885,""moisture"":9.995707738455863,""ash_content"":10.57948861105631}","2025-11-26T12:04:30.267Z","2025-11-26T12:04:30.267Z"
"cmifyitvg01bk2o7ghi3lhv69","LP-0256","Loading Point 256","cmifyitac00ob2o7gwrzs389o",,true,4,-3.225797062405384,115.4366300451218,"Seam-D","{""sulfur"":0.6198424365662885,""calorie"":5266.483125439477,""moisture"":17.84630331087345,""ash_content"":8.184985119457233}","2025-11-26T12:04:30.268Z","2025-11-26T12:04:30.268Z"
"cmifyitvi01bm2o7ghksjod0o","LP-0257","Loading Point 257","cmifyitad00oc2o7g8rq2z36g",,true,3,-5.089004116857356,115.2914209264889,"Seam-C1","{""sulfur"":0.7534309895899984,""calorie"":5326.16511271651,""moisture"":19.68466018994214,""ash_content"":7.3662693543831}","2025-11-26T12:04:30.270Z","2025-11-26T12:04:30.270Z"
"cmifyitvj01bo2o7gh21okhou","LP-0258","Loading Point 258","cmifyitak00oj2o7gag75khdo",,true,8,-3.68416246910885,115.9307881630803,"Seam-A2","{""sulfur"":0.2310622468369864,""calorie"":5024.345946506342,""moisture"":8.489834291288402,""ash_content"":11.8699070078451}","2025-11-26T12:04:30.272Z","2025-11-26T12:04:30.272Z"
"cmifyitvl01bq2o7g0zn66snn","LP-0259","Loading Point 259","cmifyitam00ol2o7g94vhyq2v",,true,7,-3.459931984286327,116.3005968989915,"Seam-B1","{""sulfur"":0.4116774946210321,""calorie"":5045.304780003182,""moisture"":19.867033242143,""ash_content"":10.77072423172942}","2025-11-26T12:04:30.273Z","2025-11-26T12:04:30.273Z"
"cmifyitvm01bs2o7gr5gecono","LP-0260","Loading Point 260","cmifyitb000oy2o7g0euthij5",,true,6,-4.800787455897019,117.2010504907633,"Seam-C2","{""sulfur"":0.4931199102988372,""calorie"":5197.052180455274,""moisture"":19.39067342641118,""ash_content"":6.630703560341979}","2025-11-26T12:04:30.275Z","2025-11-26T12:04:30.275Z"
"cmifyitvo01bu2o7gqk7t5lpg","LP-0261","Loading Point 261","cmifyitbj00pf2o7gxjt0muxu",,true,4,-3.95558425471586,116.0763449094453,"Seam-A2","{""sulfur"":0.4908153053822059,""calorie"":5128.398515548594,""moisture"":12.35815995215745,""ash_content"":9.947997041225536}","2025-11-26T12:04:30.276Z","2025-11-26T12:04:30.276Z"
"cmifyitvp01bw2o7gjl8tslpk","LP-0262","Loading Point 262","cmifyitbm00pi2o7gb613qz99",,true,6,-4.75001270034901,117.8983274124238,"Seam-D","{""sulfur"":0.2953031791529445,""calorie"":5302.804594203953,""moisture"":11.99739100590593,""ash_content"":9.158481367943203}","2025-11-26T12:04:30.278Z","2025-11-26T12:04:30.278Z"
"cmifyitvr01by2o7gra9v11gk","LP-0263","Loading Point 263","cmifyitbq00pl2o7gwxuk47do",,true,6,-5.1404959100016,115.8558331194443,"Seam-B2","{""sulfur"":0.2325303162763779,""calorie"":4769.011865172779,""moisture"":15.54058828292386,""ash_content"":11.28380459581894}","2025-11-26T12:04:30.279Z","2025-11-26T12:04:30.279Z"
"cmifyitvs01c02o7g1jy7gnbi","LP-0264","Loading Point 264","cmifyitc800q22o7gd1ayg9hd",,true,6,-5.470102216181252,119.7030491481067,"Seam-A2","{""sulfur"":0.7934267708209521,""calorie"":5532.55305432224,""moisture"":19.43479756035869,""ash_content"":10.66669400454795}","2025-11-26T12:04:30.281Z","2025-11-26T12:04:30.281Z"
"cmifyitvu01c22o7ge36rjvpe","LP-0265","Loading Point 265","cmifyitc900q32o7gez7uphpf",,true,6,-4.865948635452658,115.6688185911423,"Seam-A1","{""sulfur"":0.7943858655222396,""calorie"":4917.065661589885,""moisture"":14.88565309980989,""ash_content"":4.396954815258617}","2025-11-26T12:04:30.282Z","2025-11-26T12:04:30.282Z"
"cmifyitvv01c42o7gdw35figj","LP-0266","Loading Point 266","cmifyitcb00q52o7gtn7hsmye",,true,4,-4.85180522830561,117.5431487915225,"Seam-B1","{""sulfur"":0.5494218361912182,""calorie"":4673.457723335975,""moisture"":11.49802836110675,""ash_content"":10.53987172074177}","2025-11-26T12:04:30.284Z","2025-11-26T12:04:30.284Z"
"cmifyitvx01c62o7g6bu43ffp","LP-0267","Loading Point 267","cmifyitce00q82o7g101pl06v",,true,4,-5.04390009281115,116.8699857940494,"Seam-A2","{""sulfur"":0.3840862118546919,""calorie"":5060.617265825788,""moisture"":13.55831939790773,""ash_content"":10.79419206697647}","2025-11-26T12:04:30.285Z","2025-11-26T12:04:30.285Z"
"cmifyitvy01c82o7g184dh1oi","LP-0268","Loading Point 268","cmifyitco00qh2o7gis2howrr",,true,7,-3.79949098288669,119.1182019153914,"Seam-B2","{""sulfur"":0.4986704752432667,""calorie"":5784.796302244211,""moisture"":18.25121101267587,""ash_content"":6.051007357137737}","2025-11-26T12:04:30.286Z","2025-11-26T12:04:30.286Z"
"cmifyitw001ca2o7g4apu9nrb","LP-0269","Loading Point 269","cmifyitct00qm2o7gddrt183t",,true,4,-4.941363045032551,118.5619260879108,"Seam-D","{""sulfur"":0.232123064448673,""calorie"":5571.471367447973,""moisture"":11.86084762148485,""ash_content"":6.168226300589884}","2025-11-26T12:04:30.288Z","2025-11-26T12:04:30.288Z"
"cmifyitw101cc2o7gz1k4aq69","LP-0270","Loading Point 270","cmifyitcw00qo2o7gtejbvd9q",,true,9,-2.820632433371508,119.3402059581358,"Seam-C1","{""sulfur"":0.5568738026938606,""calorie"":5716.070323357178,""moisture"":19.07096616596827,""ash_content"":5.593807633105557}","2025-11-26T12:04:30.290Z","2025-11-26T12:04:30.290Z"
"cmifyitw301ce2o7gysbg7vry","LP-0271","Loading Point 271","cmifyitcy00qq2o7gvznuqdlu",,true,5,-3.698724477691386,118.4198897413381,"Seam-D","{""sulfur"":0.6440314980644207,""calorie"":4566.245085877092,""moisture"":19.90662442641967,""ash_content"":11.91430570809748}","2025-11-26T12:04:30.291Z","2025-11-26T12:04:30.291Z"
"cmifyitw401cg2o7g1wfugck0","LP-0272","Loading Point 272","cmifyitd400qv2o7ghnlwpvoy",,true,3,-4.265798435091909,118.1690472821102,"Seam-A1","{""sulfur"":0.5554422805078114,""calorie"":4567.269332855028,""moisture"":10.0383449382777,""ash_content"":10.98535519713746}","2025-11-26T12:04:30.293Z","2025-11-26T12:04:30.293Z"
"cmifyitw601ci2o7g3po4m7ur","LP-0273","Loading Point 273","cmifyitdf00r62o7gnois6hwf",,true,4,-4.40187514035432,115.4925254555365,"Seam-A1","{""sulfur"":0.3689631459324693,""calorie"":4835.56662809879,""moisture"":17.75792086740634,""ash_content"":8.447725893046524}","2025-11-26T12:04:30.294Z","2025-11-26T12:04:30.294Z"
"cmifyitw701ck2o7g3ymok3p6","LP-0274","Loading Point 274","cmifyitdi00r82o7gnxvofm2o",,true,4,-4.919017817593955,118.8115975855443,"Seam-B1","{""sulfur"":0.7079402244039172,""calorie"":5981.917733715679,""moisture"":17.54319272031888,""ash_content"":5.268677333747545}","2025-11-26T12:04:30.295Z","2025-11-26T12:04:30.295Z"
"cmifyitw801cm2o7g4vuvu4zd","LP-0275","Loading Point 275","cmifyitdo00re2o7g3v33w4zn",,true,5,-2.913808712982961,119.6453900425617,"Seam-A1","{""sulfur"":0.5432502196313826,""calorie"":5625.856336754944,""moisture"":18.76176321522022,""ash_content"":9.746894289520133}","2025-11-26T12:04:30.297Z","2025-11-26T12:04:30.297Z"
"cmifyitwa01co2o7gfucg8fuc","LP-0276","Loading Point 276","cmifyitdq00rg2o7gcm9wynp0",,true,8,-4.623001524169607,115.5144534901925,"Seam-B2","{""sulfur"":0.6921924930197112,""calorie"":4781.395576597502,""moisture"":11.46382720396297,""ash_content"":5.396534356225468}","2025-11-26T12:04:30.298Z","2025-11-26T12:04:30.298Z"
"cmifyitwb01cq2o7g4wqxndaz","LP-0277","Loading Point 277","cmifyitdr00rh2o7gx3qft5uk",,true,9,-4.521866585342048,118.3137136476795,"Seam-A1","{""sulfur"":0.4395034175810755,""calorie"":5488.798015733859,""moisture"":14.79991519834924,""ash_content"":9.736209937786176}","2025-11-26T12:04:30.300Z","2025-11-26T12:04:30.300Z"
"cmifyitwd01cs2o7gtdww4qhh","LP-0278","Loading Point 278","cmifyitdu00rk2o7gmd6hoywa",,true,8,-3.149591498621777,118.135072544398,"Seam-A2","{""sulfur"":0.3094996207638409,""calorie"":5238.886389168377,""moisture"":17.92158273148838,""ash_content"":11.77462265380419}","2025-11-26T12:04:30.301Z","2025-11-26T12:04:30.301Z"
"cmifyitwe01cu2o7gtwxwbk0c","LP-0279","Loading Point 279","cmifyitdv00rl2o7goql5o1zn",,true,8,-2.581670517487458,119.850283494511,"Seam-B2","{""sulfur"":0.2356302687815253,""calorie"":5354.874809892401,""moisture"":19.62952637691177,""ash_content"":10.92484548024481}","2025-11-26T12:04:30.302Z","2025-11-26T12:04:30.302Z"
"cmifyitwf01cw2o7g535mpypx","LP-0280","Loading Point 280","cmifyitdy00rn2o7gyoglwmw2",,true,5,-4.61336788156532,119.7574566198869,"Seam-A2","{""sulfur"":0.3354686216116319,""calorie"":5713.039809509059,""moisture"":13.85148166790815,""ash_content"":7.380285480484284}","2025-11-26T12:04:30.304Z","2025-11-26T12:04:30.304Z"
"cmifyitwh01cy2o7g9welapvj","LP-0281","Loading Point 281","cmifyite400rt2o7gi54z38jf",,true,4,-3.656080984843657,115.7918991847365,"Seam-C1","{""sulfur"":0.7892601827419929,""calorie"":4972.25618072601,""moisture"":19.8777739996919,""ash_content"":10.5997334363228}","2025-11-26T12:04:30.306Z","2025-11-26T12:04:30.306Z"
"cmifyitwj01d02o7g51gzfrc6","LP-0282","Loading Point 282","cmifyitec00s12o7gydc7fq3n",,true,5,-4.118896927831163,117.8141274527368,"Seam-A1","{""sulfur"":0.2245731219959655,""calorie"":4972.718891554081,""moisture"":13.09714569923501,""ash_content"":7.988372014919294}","2025-11-26T12:04:30.307Z","2025-11-26T12:04:30.307Z"
"cmifyitwk01d22o7g32k932i8","LP-0283","Loading Point 283","cmifyiten00sb2o7g4rf6je0n",,true,6,-3.628881073004192,119.60822018617,"Seam-B2","{""sulfur"":0.5738491205653479,""calorie"":5615.554896836165,""moisture"":14.2997003013524,""ash_content"":9.372943290061638}","2025-11-26T12:04:30.308Z","2025-11-26T12:04:30.308Z"
"cmifyitwl01d42o7gglqv04gb","LP-0284","Loading Point 284","cmifyites00sf2o7ga8k3q59x",,true,4,-3.492673028740225,117.3291773307619,"Seam-A1","{""sulfur"":0.3416923054987691,""calorie"":5502.11129559047,""moisture"":14.9085138772972,""ash_content"":8.6366417006884}","2025-11-26T12:04:30.310Z","2025-11-26T12:04:30.310Z"
"cmifyitwn01d62o7gpfkbeq05","LP-0285","Loading Point 285","cmifyitev00si2o7gkat5l02x",,true,7,-4.551334782178296,119.4869484676495,"Seam-A1","{""sulfur"":0.7789616038881937,""calorie"":4661.939859096874,""moisture"":9.113637330941645,""ash_content"":4.372701833959393}","2025-11-26T12:04:30.311Z","2025-11-26T12:04:30.311Z"
"cmifyitwo01d82o7gx6s3yq32","LP-0286","Loading Point 286","cmifyitew00sj2o7gg51pxxs7",,true,4,-4.223075100806935,119.0384703364253,"Seam-B1","{""sulfur"":0.6130754106239414,""calorie"":5759.71592984563,""moisture"":10.79374921155311,""ash_content"":9.627556811730889}","2025-11-26T12:04:30.312Z","2025-11-26T12:04:30.312Z"
"cmifyitwp01da2o7g1le5pqoi","LP-0287","Loading Point 287","cmifyitf600ss2o7gxtpkswrr",,true,9,-4.066334097288093,118.9708655456044,"Seam-B2","{""sulfur"":0.5131803788671623,""calorie"":5577.156945849573,""moisture"":19.62444025998745,""ash_content"":10.15576714482815}","2025-11-26T12:04:30.314Z","2025-11-26T12:04:30.314Z"
"cmifyitwr01dc2o7gm50lhrzt","LP-0288","Loading Point 288","cmifyitf700st2o7gqbxb40c3",,true,6,-3.860636349230631,115.7648937536131,"Seam-B2","{""sulfur"":0.4850345283312633,""calorie"":5213.163534974146,""moisture"":8.359683449907589,""ash_content"":8.333170415546268}","2025-11-26T12:04:30.315Z","2025-11-26T12:04:30.315Z"
"cmifyitws01de2o7gz96h9isq","LP-0289","Loading Point 289","cmifyitf900sv2o7gebfypzh0",,true,3,-4.539013211512391,117.0375510059892,"Seam-A2","{""sulfur"":0.5563972811450558,""calorie"":5415.731942558953,""moisture"":9.658766192871461,""ash_content"":5.237420571401076}","2025-11-26T12:04:30.316Z","2025-11-26T12:04:30.316Z"
"cmifyitwt01dg2o7gf0aoko59","LP-0290","Loading Point 290","cmifyitfe00sz2o7gqopfwarn",,true,3,-3.825358588173206,118.2398552701983,"Seam-B2","{""sulfur"":0.4262312835026348,""calorie"":4745.714159497748,""moisture"":16.55556444954083,""ash_content"":10.94450325790469}","2025-11-26T12:04:30.318Z","2025-11-26T12:04:30.318Z"
"cmifyitwv01di2o7gwwa20s7h","LP-0291","Loading Point 291","cmifyitfk00t52o7ggqdavz7o",,true,8,-3.340141966575036,119.6095163262256,"Seam-A2","{""sulfur"":0.4691036550505057,""calorie"":4577.917617485264,""moisture"":15.9472042555158,""ash_content"":9.673511497777394}","2025-11-26T12:04:30.319Z","2025-11-26T12:04:30.319Z"
"cmifyitwx01dk2o7gb29bdvky","LP-0292","Loading Point 292","cmifyitfn00t82o7ge257vm45",,true,7,-4.447610144882822,118.0458352443936,"Seam-B2","{""sulfur"":0.3430425993649661,""calorie"":5435.334581942646,""moisture"":12.56325509304197,""ash_content"":10.98503516468483}","2025-11-26T12:04:30.321Z","2025-11-26T12:04:30.321Z"
"cmifyitwy01dm2o7g56aei443","LP-0293","Loading Point 293","cmifyitg100tk2o7giipl4sb7",,true,6,-3.086632889254723,116.1797007511369,"Seam-C1","{""sulfur"":0.6968726638154951,""calorie"":5560.774275662118,""moisture"":15.99548524183562,""ash_content"":5.517378037456746}","2025-11-26T12:04:30.323Z","2025-11-26T12:04:30.323Z"
"cmifyitx001do2o7gxx0t5km4","LP-0294","Loading Point 294","cmifyitg600tp2o7g9igott34",,true,6,-4.849574749015061,119.5418591220762,"Seam-C1","{""sulfur"":0.657379925603421,""calorie"":4656.252565954614,""moisture"":13.33139869078477,""ash_content"":8.795020252368364}","2025-11-26T12:04:30.324Z","2025-11-26T12:04:30.324Z"
"cmifyitx101dq2o7g90hpifbx","LP-0295","Loading Point 295","cmifyitg800tr2o7g0fux6slh",,true,8,-4.966486474089717,116.8832948635045,"Seam-C2","{""sulfur"":0.6480764119431481,""calorie"":5605.651425068998,""moisture"":19.84338909123426,""ash_content"":6.303287787187561}","2025-11-26T12:04:30.325Z","2025-11-26T12:04:30.325Z"
"cmifyitx301ds2o7gombg4p4b","LP-0296","Loading Point 296","cmifyitgh00tz2o7g1i5o9zzz",,true,5,-2.616024306794574,117.784635712035,"Seam-D","{""sulfur"":0.4432191431952498,""calorie"":5062.925992308657,""moisture"":12.36505149551808,""ash_content"":4.583022759054561}","2025-11-26T12:04:30.327Z","2025-11-26T12:04:30.327Z"
"cmifyitx401du2o7gtk0blbv7","LP-0297","Loading Point 297","cmifyitgq00u72o7gozf9qynn",,false,4,-3.077324468137526,117.6804484995076,"Seam-D","{""sulfur"":0.27326747934007,""calorie"":5141.619651342485,""moisture"":8.937126488262434,""ash_content"":11.30563494441194}","2025-11-26T12:04:30.328Z","2025-11-26T12:04:30.328Z"
"cmifyitx501dw2o7gj45y5w09","LP-0298","Loading Point 298","cmifyitgt00ua2o7gyq87x5ri",,true,5,-2.565406268247131,118.2409008611505,"Seam-B1","{""sulfur"":0.6704126199123728,""calorie"":5225.106368404782,""moisture"":14.30618364311094,""ash_content"":9.468826874924714}","2025-11-26T12:04:30.330Z","2025-11-26T12:04:30.330Z"
"cmifyitx701dy2o7gs9dwpw6e","LP-0299","Loading Point 299","cmifyith100ui2o7g5i6fryv5",,true,8,-3.471068514509144,118.6942305992682,"Seam-A2","{""sulfur"":0.5168718374459567,""calorie"":5279.928970624686,""moisture"":8.326569863874482,""ash_content"":7.009020620421746}","2025-11-26T12:04:30.331Z","2025-11-26T12:04:30.331Z"
"cmifyitx801e02o7gobxl3bcr","LP-0300","Loading Point 300","cmifyithh00ux2o7g7rbi12ku",,true,6,-3.246852889821538,115.3987336356349,"Seam-A1","{""sulfur"":0.6946298387864307,""calorie"":5980.14114470447,""moisture"":13.09101840306202,""ash_content"":7.518069779111061}","2025-11-26T12:04:30.333Z","2025-11-26T12:04:30.333Z"
"cmifyitxa01e22o7gl7m9k6pu","LP-0301","Loading Point 301","cmifyithu00v92o7gfcl5nxpb",,true,4,-5.182757432226364,117.324838573017,"Seam-C2","{""sulfur"":0.3784143911057328,""calorie"":5340.406590743291,""moisture"":19.09888123556492,""ash_content"":5.763539739793222}","2025-11-26T12:04:30.334Z","2025-11-26T12:04:30.334Z"
"cmifyitxb01e42o7gk6kb85ez","LP-0302","Loading Point 302","cmifyithz00ve2o7g8t35088k",,true,7,-4.257428006874305,119.1181434013921,"Seam-B1","{""sulfur"":0.659978470823428,""calorie"":5090.351208438608,""moisture"":16.08903872814884,""ash_content"":8.084497182838088}","2025-11-26T12:04:30.335Z","2025-11-26T12:04:30.335Z"
"cmifyitxd01e62o7gkzal0rb9","LP-0303","Loading Point 303","cmifyiti500vj2o7ghko4oufk",,true,3,-4.003305606234318,119.2257472282315,"Seam-B2","{""sulfur"":0.7554521031635397,""calorie"":5283.672451763107,""moisture"":15.40117791476081,""ash_content"":5.372022397015501}","2025-11-26T12:04:30.337Z","2025-11-26T12:04:30.337Z"
"cmifyitxf01e82o7gai8mz8x9","LP-0304","Loading Point 304","cmifyitic00vq2o7g4yicblew",,true,9,-3.295821648321168,116.1153659945153,"Seam-D","{""sulfur"":0.4210156635047339,""calorie"":5883.967300120385,""moisture"":11.01472906208545,""ash_content"":6.071328518153154}","2025-11-26T12:04:30.339Z","2025-11-26T12:04:30.339Z"
"cmifyitxh01ea2o7g5ijjp33d","LP-0305","Loading Point 305","cmifyitin00w02o7gwiq87d70",,true,4,-4.213758606770809,119.6515766721543,"Seam-B2","{""sulfur"":0.7179188010081481,""calorie"":4736.122741805764,""moisture"":14.60053451233361,""ash_content"":6.911967248380318}","2025-11-26T12:04:30.341Z","2025-11-26T12:04:30.341Z"
"cmifyitxi01ec2o7gvfklfqep","LP-0306","Loading Point 306","cmifyitio00w12o7gs6n0aaq3",,true,4,-3.74057326884828,115.3047939285761,"Seam-A2","{""sulfur"":0.5135138299213171,""calorie"":5155.760624939398,""moisture"":18.69449736100555,""ash_content"":11.10610170856107}","2025-11-26T12:04:30.342Z","2025-11-26T12:04:30.342Z"
"cmifyitxk01ee2o7g9rl77v5p","LP-0307","Loading Point 307","cmifyitis00w52o7g63mk8fqf",,true,7,-4.877224807556868,116.7091059004706,"Seam-C1","{""sulfur"":0.7917614579116972,""calorie"":4681.551577848532,""moisture"":19.7449100385225,""ash_content"":5.743836109973746}","2025-11-26T12:04:30.344Z","2025-11-26T12:04:30.344Z"
"cmifyitxl01eg2o7g2hbpc73l","LP-0308","Loading Point 308","cmifyitiv00w72o7gzc513241",,true,5,-4.357302101772397,115.2010397272431,"Seam-B1","{""sulfur"":0.4442865104410986,""calorie"":5977.001229442276,""moisture"":13.88367860898612,""ash_content"":7.047323037039243}","2025-11-26T12:04:30.346Z","2025-11-26T12:04:30.346Z"
"cmifyitxn01ei2o7gdlk17w9f","LP-0309","Loading Point 309","cmifyitiw00w82o7g9wj63xn2",,true,7,-2.658568550655034,116.6599279708083,"Seam-A1","{""sulfur"":0.3387391702609279,""calorie"":5541.006027887787,""moisture"":13.23806657480418,""ash_content"":9.841309564097802}","2025-11-26T12:04:30.347Z","2025-11-26T12:04:30.347Z"
